{"type":"FeatureCollection","features":[{"type":"Feature","properties":{"website":"www.bsdekleurdoos.be","school":"primary; kindergarten","language:nl":"yes","capacity":502,"source:ref":"18","email":"info@bsdekleurdoos.be","name":"GO! basisschool De Kleurdoos Brussel","phone":"02 512 49 79"},"geometry":{"type":"Point","coordinates":[4.344780723946017,50.85019017359137]}},{"type":"Feature","properties":{"website":"www.hetplantzoentje.be","school":"primary; kindergarten","language:nl":"yes","capacity":397,"source:ref":"26","email":"sec@hetplantzoentje.be","name":"GO! basisschool 't Plant'zoentje Laken","phone":"02 474 06 20"},"geometry":{"type":"Point","coordinates":[4.348488499702537,50.88131147224195]}},{"type":"Feature","properties":{"website":"www.bshc.be","school":"primary; kindergarten","language:nl":"yes","capacity":370,"source:ref":"34","email":"directeur@hendrikconscience.be","name":"GO! basisschool Schaarbeek Hendrik Conscience","phone":"02 215 99 95"},"geometry":{"type":"Point","coordinates":[4.390894417789621,50.863979515319066]}},{"type":"Feature","properties":{"website":"www.bsetterbeek.be","school":"primary; kindergarten","language:nl":"yes","capacity":538,"source:ref":"42","email":"info@bsetterbeek.be","name":"GO! basisschool Atheneum Etterbeek","phone":"02 732 17 04"},"geometry":{"type":"Point","coordinates":[4.407655845451085,50.83158668862661]}},{"type":"Feature","properties":{"website":"www.tehuisbrussel.be","school":"primary; kindergarten","language:nl":"yes","capacity":77,"source:ref":"59","email":"directie@tehuisbrussel.be","name":"GO! tehuis en basisschool Etterbeek","phone":"02 734 19 05"},"geometry":{"type":"Point","coordinates":[4.407756783016275,50.8334294590495]}},{"type":"Feature","properties":{"website":"www.dewimpel.be","school":"primary; kindergarten","language:nl":"yes","capacity":299,"source:ref":"67","email":"secretariaat@dewimpel.be","name":"GO! basisschool De Wimpel Elsene","phone":"02 511 52 30"},"geometry":{"type":"Point","coordinates":[4.368621819338935,50.833292540608376]}},{"type":"Feature","properties":{"website":"www.bsgodebron.com","school":"kindergarten; primary","language:nl":"yes","capacity":363,"source:ref":"75","email":"secretariaat.debron@sgrbrussel.be","name":"GO! basisschool De Bron","phone":"02 538 54 52"},"geometry":{"type":"Point","coordinates":[4.3552368958376535,50.8306130969029]}},{"type":"Feature","properties":{"website":"www.campustoverfluit.be","school":"primary","language:nl":"yes","capacity":178,"source:ref":"83","email":"sabine.vanheeswijck@campustoverfluit.be","name":"GO! lagere school Toverfluit","phone":"02 413 11 30"},"geometry":{"type":"Point","coordinates":[4.296017675217352,50.850745909563436]}},{"type":"Feature","properties":{"website":"www.degoudenregen.be","school":"primary; kindergarten","language:nl":"yes","capacity":332,"source:ref":"91","email":"secretariaat@degoudenregen.be","name":"GO! basisschool De Goudenregen","phone":"02 421 54 00"},"geometry":{"type":"Point","coordinates":[4.318402343361793,50.87270009988713]}},{"type":"Feature","properties":{"website":"www.unescoschool.be","school":"primary; kindergarten","language:nl":"yes","capacity":692,"source:ref":"109","email":"guray.turkistan@unescoschool.be","name":"GO! basisschool Unescoschool Koekelberg","phone":"02 468 16 16"},"geometry":{"type":"Point","coordinates":[4.308707947393948,50.86572002362665]}},{"type":"Feature","properties":{"website":"www.zavelberg.be","school":"primary; kindergarten","language:nl":"yes","capacity":210,"source:ref":"117","email":"liesbet.doucet@zavelberg.be","name":"GO! basisschool Zavelberg Sint-Agatha-Berchem","phone":"02 482 01 05"},"geometry":{"type":"Point","coordinates":[4.298066564848524,50.867206419042674]}},{"type":"Feature","properties":{"website":"https://kasteelbeiaard.be","school":"primary; kindergarten","language:nl":"yes","capacity":309,"source:ref":"125","email":"Bart.Laevens@kasteelbeiaard.be","name":"GO! basisschool Kasteel Beiaard","phone":"02 268 18 97"},"geometry":{"type":"Point","coordinates":[4.379951201087,50.894364595465326]}},{"type":"Feature","properties":{"website":"www.de-wegwijzer.be","school":"primary; kindergarten","language:nl":"yes","capacity":337,"source:ref":"133","email":"directie@de-wegwijzer.be","name":"GO! basisschool De Weg-wijzer Evere","phone":"02 241 58 09"},"geometry":{"type":"Point","coordinates":[4.405040446617922,50.88031819298687]}},{"type":"Feature","properties":{"website":"www.de-zonnewijzer.be","school":"kindergarten; primary","language:nl":"yes","capacity":194,"source:ref":"141","email":"heidi.trappeniers@de-zonnewijzer.be","name":"GO! basisschool De Zonnewijzer","phone":"02 770 85 56"},"geometry":{"type":"Point","coordinates":[4.462008762243434,50.83321848823712]}},{"type":"Feature","properties":{"website":"www.destadsmus.be","school":"kindergarten; primary","language:nl":"yes","capacity":391,"source:ref":"158","email":"secretariaat@destadsmus.be","name":"GO! basisschool De Stadsmus Oudergem","phone":"02 672 87 18"},"geometry":{"type":"Point","coordinates":[4.421564809411329,50.818061171721006]}},{"type":"Feature","properties":{"website":"www.debloeiendekerselaar.be","school":"primary; kindergarten","language:nl":"yes","capacity":218,"source:ref":"166","email":"kristel.derdelinckx@debloeiendekerselaar.be","name":"GO! basisschool De Bloeiende Kerselaar Watermaal-Bosvoorde","phone":"02 660 39 41"},"geometry":{"type":"Point","coordinates":[4.4174210743616085,50.80448909893913]}},{"type":"Feature","properties":{"website":"www.bsfloreal.be","school":"primary; kindergarten","language:nl":"yes","capacity":205,"source:ref":"174","email":"directie@bsfloreal.be","name":"GO! basisschool Floreal Ukkel","phone":"02 340 68 90"},"geometry":{"type":"Point","coordinates":[4.337934306357142,50.808361435252806]}},{"type":"Feature","properties":{"website":"www.bsfloralia.be","school":"primary; kindergarten","language:nl":"yes","capacity":331,"source:ref":"182","email":"directie@bsfloralia.be","name":"GO! basisschool Floralia","phone":"02 771 59 71"},"geometry":{"type":"Point","coordinates":[4.4323303727127605,50.845500033242125]}},{"type":"Feature","properties":{"website":"www.campuskahalle.be","school":"primary; kindergarten","language:nl":"yes","capacity":483,"source:ref":"191","email":"katleen.roelandt@go-campushalle.be","name":"GO! basisschool De Leerboom","phone":"02 363 82 42"},"geometry":{"type":"Point","coordinates":[4.2350877546421835,50.73901770102935]}},{"type":"Feature","properties":{"website":"www.zilverberkhalle.be","school":"primary; kindergarten","language:nl":"yes","capacity":709,"source:ref":"208","email":"directie.zilverberk@ringscholen.be","name":"GO! basisschool Zilverberk","phone":"02 356 78 89"},"geometry":{"type":"Point","coordinates":[4.245651888496179,50.729590168558644]}},{"type":"Feature","properties":{"website":"www.bsmarkevallei.be","school":"primary; kindergarten","language:nl":"yes","capacity":188,"source:ref":"216","email":"directie.markevallei@ringscholen.be","name":"GO! basisschool Markevallei","phone":"02 396 13 76"},"geometry":{"type":"Point","coordinates":[4.07104771828085,50.71544300815285]}},{"type":"Feature","properties":{"website":"www.degroeneparel.be","school":"primary; kindergarten","language:nl":"yes","capacity":326,"source:ref":"232","email":"directie.de.groeneparel@ringscholen.be","name":"GO! basisschool De Groene Parel","phone":"02 377 82 12"},"geometry":{"type":"Point","coordinates":[4.279978823444236,50.80114099662653]}},{"type":"Feature","properties":{"website":"www.dekey.be","school":"primary; kindergarten","language:nl":"yes","capacity":131,"source:ref":"257","email":"directie.de.key@ringscholen.be","name":"GO! basisschool De Key","phone":"02 532 33 65"},"geometry":{"type":"Point","coordinates":[4.151416048402811,50.80811202655235]}},{"type":"Feature","properties":{"website":"www.bsvijverbeek.be","school":"primary; kindergarten","language:nl":"yes","capacity":595,"source:ref":"265","email":"directie.bs.vijverbeek@ringscholen.be","name":"GO! basisschool Vijverbeek","phone":"02 451 61 02"},"geometry":{"type":"Point","coordinates":[4.191419347228813,50.907887741247585]}},{"type":"Feature","properties":{"website":"www.devlinderdilbeek.be","school":"primary; kindergarten","language:nl":"yes","capacity":396,"source:ref":"273","email":"directie.de.vlinder@ringscholen.be","name":"GO! basisschool De Vlinder","phone":"02 569 39 47"},"geometry":{"type":"Point","coordinates":[4.2557132851758315,50.84678611938999]}},{"type":"Feature","properties":{"website":"www.bshorizon.be","school":"primary; kindergarten","language:nl":"yes","capacity":215,"source:ref":"281","email":"sylvie.struyf@bshorizon.be","name":"GO! basisschool Horizon","phone":"02 582 52 76"},"geometry":{"type":"Point","coordinates":[4.181803531823281,50.86958802734337]}},{"type":"Feature","properties":{"website":"www.debij.be","school":"primary; kindergarten","language:nl":"yes","capacity":405,"source:ref":"299","email":"info@debij.be","name":"GO! basisschool De Bij Liedekerke","phone":"053 46 33 00"},"geometry":{"type":"Point","coordinates":[4.092264666136383,50.87443716865795]}},{"type":"Feature","properties":{"website":"www.klimopvilvoorde.be","school":"primary; kindergarten","language:nl":"yes","capacity":589,"source:ref":"307","email":"info@klimopvilvoorde.be","name":"GO! basisschool Klim-Op Vilvoorde","phone":"02 251 35 61"},"geometry":{"type":"Point","coordinates":[4.431431635754662,50.93632685269848]}},{"type":"Feature","properties":{"website":"www.kaleido-vilvoorde.be","school":"primary; kindergarten","language:nl":"yes","capacity":423,"source:ref":"315","email":"directeur@kaleido-vilvoorde.be","name":"GO! basisschool Kaleido","phone":"02 251 58 17"},"geometry":{"type":"Point","coordinates":[4.431263457341075,50.92772443639469]}},{"type":"Feature","properties":{"website":"www.desterrenhemel.be","school":"primary; kindergarten","language:nl":"yes","capacity":449,"source:ref":"323","email":"directeur@desterrenhemel.be","name":"GO! basisschool De Sterrenhemel","phone":"02 251 39 31"},"geometry":{"type":"Point","coordinates":[4.437453297069204,50.91046189488176]}},{"type":"Feature","properties":{"website":"www.bsgo-grimbergen.be","school":"primary; kindergarten","language:nl":"yes","capacity":631,"source:ref":"331","email":"directeur@deregenbooggrimbergen.be","name":"GO! basisschool De Regenboog","phone":"02 269 31 45"},"geometry":{"type":"Point","coordinates":[4.368154775888146,50.93051935855673]}},{"type":"Feature","properties":{"website":"www.bs-zonnebloem.be","school":"primary; kindergarten","language:nl":"yes","capacity":214,"source:ref":"349","email":"secretariaat.zonnebloem@ringscholen.be","name":"GO! basisschool De Zonnebloem Wolvertem","phone":"02 269 52 22"},"geometry":{"type":"Point","coordinates":[4.309265808643967,50.954298837773734]}},{"type":"Feature","properties":{"website":"https://www.duizendpootrakkers.be","school":"primary; kindergarten","language:nl":"yes","capacity":222,"source:ref":"356","email":"info@duizendpootrakkers.be","name":"GO! basisschool De Duizendpootrakkers","phone":"052 35 56 16"},"geometry":{"type":"Point","coordinates":[4.189430339773272,50.97123947972652]}},{"type":"Feature","properties":{"website":"www.bskasteeltje.be","school":"kindergarten; primary","language:nl":"yes","capacity":498,"source:ref":"364","email":"bs.overijse@telenet.be","name":"GO! basisschool 't Kasteeltje","phone":"02 688 22 31"},"geometry":{"type":"Point","coordinates":[4.540981945271672,50.77381625630245]}},{"type":"Feature","properties":{"website":"https://www.go-devleugel.be","school":"primary; kindergarten","language:nl":"yes","capacity":358,"source:ref":"372","email":"info@go-devleugel.be","name":"GO! basisschool De Vleugel","phone":"02 720 17 92"},"geometry":{"type":"Point","coordinates":[4.475496238306167,50.883744323738874]}},{"type":"Feature","properties":{"website":"www.kattensprong.be","school":"primary; kindergarten","language:nl":"yes","capacity":212,"source:ref":"381","email":"info@kattensprong.be","name":"GO! basisschool De KATtensprong","phone":"02 766 11 12"},"geometry":{"type":"Point","coordinates":[4.500854911155826,50.82152158993936]}},{"type":"Feature","properties":{"website":"https://www.hetgroenedal.be","school":"primary; kindergarten","language:nl":"yes","capacity":600,"source:ref":"398","email":"directeur@hetgroenedal.be","name":"GO! basisschool Het Groene Dal","phone":"02 657 42 98"},"geometry":{"type":"Point","coordinates":[4.477975842495333,50.76592800383196]}},{"type":"Feature","properties":{"website":"www.depijl.be","school":"primary; kindergarten","language:nl":"yes","capacity":448,"source:ref":"406","email":"directie@depijl.be","name":"GO! basisschool De Pijl Antwerpen","phone":"03 232 71 50"},"geometry":{"type":"Point","coordinates":[4.418554157794059,51.221055890435586]}},{"type":"Feature","properties":{"website":"www.de-spits.be","school":"primary; kindergarten","language:nl":"yes","capacity":224,"source:ref":"414","email":"info@de-spits.be","name":"GO! basisschool De Spits Antwerpen","phone":"03 210 95 84"},"geometry":{"type":"Point","coordinates":[4.388814237737759,51.225406257104844]}},{"type":"Feature","properties":{"website":"www.hetlaerhof.be","school":"primary; kindergarten","language:nl":"yes","capacity":661,"source:ref":"422","email":"directie@hetlaerhof.be","name":"GO! basisschool Het Laerhof Merksem","phone":"03 645 08 06"},"geometry":{"type":"Point","coordinates":[4.436385758085006,51.248694185147436]}},{"type":"Feature","properties":{"website":"www.3hoek-ekeren.be","school":"primary; kindergarten","language:nl":"yes","capacity":430,"source:ref":"431","email":"directie@3hoek-ekeren.be","name":"GO! basisschool 3Hoek Ekeren","phone":"03 541 62 54"},"geometry":{"type":"Point","coordinates":[4.418591248262743,51.28101496968665]}},{"type":"Feature","properties":{"website":"www.irishof.be","school":"primary; kindergarten","language:nl":"yes","capacity":412,"source:ref":"448","email":"directie@irishof.be","name":"GO! basisschool Irishof","phone":"03 660 13 04"},"geometry":{"type":"Point","coordinates":[4.422478791079038,51.32063162343003]}},{"type":"Feature","properties":{"website":"www.bs-destappe.be","school":"primary; kindergarten","language:nl":"yes","capacity":288,"source:ref":"455","email":"directie@bs-destappe.be","name":"GO! basisschool De Stappe","phone":"03 568 31 92"},"geometry":{"type":"Point","coordinates":[4.371503396753814,51.33229242683458]}},{"type":"Feature","properties":{"website":"www.hetnotendopje.be","school":"kindergarten","language:nl":"yes","capacity":158,"source:ref":"463","email":"info@hetnotendopje.be","name":"GO! kleuterschool Het Notendopje","phone":"03 354 30 23"},"geometry":{"type":"Point","coordinates":[4.518958970540143,51.23009284700881]}},{"type":"Feature","properties":{"website":"www.bsschoten.be","school":"primary; kindergarten","language:nl":"yes","capacity":281,"source:ref":"471","email":"directie@bsschoten.be","name":"GO! basisschool Vijverhof","phone":"03 658 61 81"},"geometry":{"type":"Point","coordinates":[4.499653440775093,51.25751160671368]}},{"type":"Feature","properties":{"website":"www.bsdebrug.be","school":"primary; kindergarten","language:nl":"yes","capacity":521,"source:ref":"489","email":"directie@bsdebrug.be","name":"GO! basisschool De Brug","phone":"03 636 11 44"},"geometry":{"type":"Point","coordinates":[4.573261469793256,51.29575813115555]}},{"type":"Feature","properties":{"website":"wonderwijsbrasschaat.be","school":"primary; kindergarten","language:nl":"yes","capacity":158,"source:ref":"497","email":"basisschool@wonderwijsbrasschaat.be","name":"GO! basisschool Wonderwijs","phone":"0491 96 91 58"},"geometry":{"type":"Point","coordinates":[4.49025145001763,51.29349148319168]}},{"type":"Feature","properties":{"website":"www.gomalle.be","school":"primary; kindergarten","language:nl":"yes","capacity":191,"source:ref":"505","email":"emmanuela.vervoort@inventoscholen.be","name":"GO! basisschool 't Park","phone":"03 312 02 31"},"geometry":{"type":"Point","coordinates":[4.73780044349301,51.29658929579277]}},{"type":"Feature","properties":{"website":"www.klim-op.net","school":"primary; kindergarten","language:nl":"yes","capacity":162,"source:ref":"513","email":"bs.zoersel@sgr3.be","name":"GO! basisschool Klim-op","phone":"03 383 25 95"},"geometry":{"type":"Point","coordinates":[4.635569487399212,51.26669222124146]}},{"type":"Feature","properties":{"website":"www.tscholeke-devinkjes.be","school":"kindergarten; primary","language:nl":"yes","capacity":85,"source:ref":"521","email":"directie@tscholeke-devinkjes.be","name":"GO! basisschool Daltonschool De Vinkjes","phone":"03 669 63 61"},"geometry":{"type":"Point","coordinates":[4.594656042459779,51.390907927243575]}},{"type":"Feature","properties":{"website":"www.de4sprong-3D.be","school":"primary; kindergarten","language:nl":"yes","capacity":188,"source:ref":"539","email":"directie@de4sprong-3D.be","name":"GO! basisschool De 4sprong-3D","phone":"03 666 98 35"},"geometry":{"type":"Point","coordinates":[4.471431600684924,51.377877154433065]}},{"type":"Feature","properties":{"website":"www.freinetwonderwereld.be","school":"kindergarten; primary","language:nl":"yes","capacity":134,"source:ref":"547","email":"directie@freinetwonderwereld.be","name":"GO! basisschool Freinetschool WonderWereld","phone":"03 667 25 03"},"geometry":{"type":"Point","coordinates":[4.468419090392472,51.46535383825903]}},{"type":"Feature","properties":{"website":"www.bsplantijntje.be","school":"primary; kindergarten","language:nl":"yes","capacity":369,"source:ref":"554","email":"directie@bsplantijntje.be","name":"GO! basisschool Plantijntje","phone":"03 235 36 90"},"geometry":{"type":"Point","coordinates":[4.431563580590543,51.21000311922717]}},{"type":"Feature","properties":{"website":"www.bsdeboomgaard.be","school":"primary; kindergarten","language:nl":"yes","capacity":208,"source:ref":"562","email":"secretariaat@bsdeboomgaard.be","name":"GO! basisschool De Boomgaard","phone":"03 353 73 01"},"geometry":{"type":"Point","coordinates":[4.51938489027134,51.20264245180388]}},{"type":"Feature","properties":{"website":"www.vennebos.be","school":"primary; kindergarten","language:nl":"yes","capacity":215,"source:ref":"571","email":"christine.claessens@vennebos.be","name":"GO! basisschool Vennebos","phone":"03 383 08 15"},"geometry":{"type":"Point","coordinates":[4.576812485035507,51.231047218988124]}},{"type":"Feature","properties":{"website":"www.zandhofje.be","school":"kindergarten; primary","language:nl":"yes","capacity":204,"source:ref":"588","email":"directie@zandhofje.be","name":"GO! leefschool 't Zandhofje","phone":"03 484 34 48"},"geometry":{"type":"Point","coordinates":[4.65461917843616,51.21241317157067]}},{"type":"Feature","properties":{"website":"www.bsdezevensprong.be","school":"primary; kindergarten","language:nl":"yes","capacity":195,"source:ref":"596","email":"directie@bsdezevensprong.be","name":"GO! basisschool - De Zevensprong","phone":"03 481 82 92"},"geometry":{"type":"Point","coordinates":[4.669379748906231,51.16260807920925]}},{"type":"Feature","properties":{"website":"www.bsklavertje.be","school":"primary; kindergarten","language:nl":"yes","capacity":68,"source:ref":"604","email":"directie@bsklavertje.be","name":"GO! basisschool 't Klavertje","phone":"014 51 13 39"},"geometry":{"type":"Point","coordinates":[4.758945267219291,51.13791440407021]}},{"type":"Feature","properties":{"website":"www.bs-dewijngaard.be","school":"primary; kindergarten","language:nl":"yes","capacity":74,"source:ref":"612","email":"directie@bs-dewijngaard.be","name":"GO! basisschool De Wijngaard","phone":"014 51 33 82"},"geometry":{"type":"Point","coordinates":[4.7420581077184,51.195009783863306]}},{"type":"Feature","properties":{"website":"www.basisschoolkameleon.be","school":"kindergarten; primary","language:nl":"yes","capacity":538,"source:ref":"621","email":"directie@basisschoolkameleon.be","name":"GO! basisschool Kameleon","phone":"014 41 41 78"},"geometry":{"type":"Point","coordinates":[4.921759811368956,51.32519024007794]}},{"type":"Feature","properties":{"website":"www.desmiskens.be","school":"primary; kindergarten","language:nl":"yes","capacity":248,"source:ref":"638","email":"directie@desmiskens.be","name":"GO! basisschool De Smiskens","phone":"014 41 30 76"},"geometry":{"type":"Point","coordinates":[4.946936630776776,51.316054809224084]}},{"type":"Feature","properties":{"website":"www.locomotiefje.be","school":"primary; kindergarten","language:nl":"yes","capacity":172,"source:ref":"653","email":"info@locomotiefje.be","name":"GO! basisschool 't Locomotiefje","phone":"014 61 38 40"},"geometry":{"type":"Point","coordinates":[4.852182763340985,51.31800827450691]}},{"type":"Feature","properties":{"website":"www.talentenschoolblink.be","school":"primary; kindergarten","language:nl":"yes","capacity":101,"source:ref":"679","email":"directie@talentenschoolblink.be","name":"GO! basisschool Talentenschool - Blink","phone":"014 65 59 44"},"geometry":{"type":"Point","coordinates":[4.990571580731731,51.36785589870751]}},{"type":"Feature","properties":{"website":"www.bshetschrijvertje.be","school":"primary; kindergarten","language:nl":"yes","capacity":203,"source:ref":"687","email":"directie@bshetschrijvertje.be","name":"GO! basisschool Het Schrijvertje","phone":"014 31 11 50"},"geometry":{"type":"Point","coordinates":[5.119753779012659,51.190305584501225]}},{"type":"Feature","properties":{"website":"www.bsherentals.be","school":"primary; kindergarten","language:nl":"yes","capacity":358,"source:ref":"703","email":"directie@bsherentals.be","name":"GO! basisschool De Vesten","phone":"014 21 10 60"},"geometry":{"type":"Point","coordinates":[4.842735561486364,51.17804613751897]}},{"type":"Feature","properties":{"website":"www.freinetschoollille.be","school":"kindergarten; primary","language:nl":"yes","capacity":248,"source:ref":"711","email":"directie@freinetschoollille.be","name":"GO! freinetschool De Vlindertuin Lille","phone":"014 88 06 35"},"geometry":{"type":"Point","coordinates":[4.828627436024153,51.236526321519214]}},{"type":"Feature","properties":{"website":"www.bs-willemtell.com","school":"primary; kindergarten","language:nl":"yes","capacity":238,"source:ref":"729","email":"directie@bs-willemtell.com","name":"GO! basisschool Willem Tell","phone":"014 26 30 58"},"geometry":{"type":"Point","coordinates":[4.855395075800983,51.142876338935984]}},{"type":"Feature","properties":{"website":"www.luchtballongeel.be","school":"primary; kindergarten","language:nl":"yes","capacity":466,"source:ref":"737","email":"els.lenaerts@gogeel.be","name":"GO! basisschool De Luchtballon","phone":"014 58 60 46"},"geometry":{"type":"Point","coordinates":[4.986389299003292,51.163754089939275]}},{"type":"Feature","properties":{"website":"www.zevensprongdessel.be","school":"primary; kindergarten","language:nl":"yes","capacity":79,"source:ref":"752","email":"directie@zevensprongdessel.be","name":"GO! basisschool De Zevensprong","phone":"014 37 74 82"},"geometry":{"type":"Point","coordinates":[5.119061501541994,51.23790469125519]}},{"type":"Feature","properties":{"website":"https://curieuzeneuzen.school","school":"primary; kindergarten","language:nl":"yes","capacity":190,"source:ref":"761","email":"directie@curieuzeneuzen.school","name":"GO! basisschool Curieuzeneuzen","phone":"014 81 17 38"},"geometry":{"type":"Point","coordinates":[5.163246173440591,51.17315772022143]}},{"type":"Feature","properties":{"website":"www.hetmolentje.be","school":"primary; kindergarten","language:nl":"yes","capacity":328,"source:ref":"794","email":"grietr@atheneumlier.be","name":"GO! Atheneum Lier basisschool Het Molentje","phone":"03 480 05 69"},"geometry":{"type":"Point","coordinates":[4.5679976313613135,51.13871685096475]}},{"type":"Feature","properties":{"website":"www.atheneumlier.be","school":"primary; kindergarten","language:nl":"yes","capacity":210,"source:ref":"802","email":"stadspark@atheneumlier.be","name":"GO! Atheneum Lier basisschool Stadspark","phone":"03 480 78 80"},"geometry":{"type":"Point","coordinates":[4.573478842700354,51.12781339660927]}},{"type":"Feature","properties":{"website":"www.bisterveld.be","school":"primary; kindergarten","language:nl":"yes","capacity":229,"source:ref":"811","email":"directie@bisterveld.be","name":"GO! basisschool Bisterveld","phone":"03 480 20 39"},"geometry":{"type":"Point","coordinates":[4.62836971417682,51.14252680232017]}},{"type":"Feature","properties":{"website":"www.bolsterdorp.be","school":"primary; kindergarten","language:nl":"yes","capacity":206,"source:ref":"828","email":"directie@bolsterdorp.be","name":"GO! basisschool De Bolster","phone":"03 449 89 05"},"geometry":{"type":"Point","coordinates":[4.45365913277653,51.164553468262085]}},{"type":"Feature","properties":{"website":"www.bstkofschip.be","school":"primary; kindergarten","language:nl":"yes","capacity":443,"source:ref":"836","email":"directie@bstkofschip.be","name":"GO! basisschool 't Kofschip","phone":"03 448 13 43"},"geometry":{"type":"Point","coordinates":[4.434863460862491,51.156611007175876]}},{"type":"Feature","properties":{"website":"www.tgroenschooltje.be","school":"primary; kindergarten","language:nl":"yes","capacity":291,"source:ref":"844","email":"info@tgroenschooltje.be","name":"GO! basisschool 't Groen Schooltje","phone":"03 455 48 06"},"geometry":{"type":"Point","coordinates":[4.47343725720144,51.15527039377066]}},{"type":"Feature","properties":{"website":"www.deschans-kontich.be","school":"primary; kindergarten","language:nl":"yes","capacity":409,"source:ref":"851","email":"directie@deschans-kontich.be","name":"GO! basisschool De Schans","phone":"03 457 32 73"},"geometry":{"type":"Point","coordinates":[4.442881141495665,51.12962298640688]}},{"type":"Feature","properties":{"website":"www.kiliaan.be","school":"primary; kindergarten","language:nl":"yes","capacity":395,"source:ref":"869","email":"directie@kiliaan.be","name":"GO! basisschool Kiliaan","phone":"015 31 17 52"},"geometry":{"type":"Point","coordinates":[4.495386607029416,51.096374216534294]}},{"type":"Feature","properties":{"website":"www.dagpauwoog.be","school":"kindergarten; primary","language:nl":"yes","capacity":142,"source:ref":"877","email":"dagpauwoog@atheneumlier.be","name":"GO! Atheneum Lier leefschool Dagpauwoog","phone":"03 482 14 15"},"geometry":{"type":"Point","coordinates":[4.607726463410843,51.09608200155545]}},{"type":"Feature","properties":{"website":"www.parkschoolieperman.be","school":"primary; kindergarten","language:nl":"yes","capacity":650,"source:ref":"885","email":"info@parkschoolieperman.be","name":"GO! basisschool Parkschool Ieperman","phone":"03 827 11 18"},"geometry":{"type":"Point","coordinates":[4.396365848296515,51.16912946489864]}},{"type":"Feature","properties":{"website":"www.mercatorschool.be","school":"primary; kindergarten","language:nl":"yes","capacity":285,"source:ref":"893","email":"info@mercatorschool.be","name":"GO! basisschool Mercator Rupelmonde","phone":"03 774 18 23"},"geometry":{"type":"Point","coordinates":[4.293188965500958,51.13107082158285]}},{"type":"Feature","properties":{"website":"www.bsdeblokkendoos.be","school":"primary; kindergarten","language:nl":"yes","capacity":407,"source:ref":"901","email":"directeur@bsdeblokkendoos.be","name":"GO! basisschool De Blokkendoos","phone":"03 887 66 91"},"geometry":{"type":"Point","coordinates":[4.386284853126687,51.12933996778771]}},{"type":"Feature","properties":{"website":"www.dehoeksteen-boom.be","school":"primary; kindergarten","language:nl":"yes","capacity":391,"source:ref":"919","email":"directeur@dehoeksteen-boom.be","name":"GO! basisschool De Hoeksteen","phone":"03 888 02 17"},"geometry":{"type":"Point","coordinates":[4.369127492579493,51.087068499801816]}},{"type":"Feature","properties":{"website":"www.boompark.be","school":"kindergarten; primary","language:nl":"yes","capacity":627,"source:ref":"927","email":"directeur@boompark.be","name":"GO! basisschool Park","phone":"03 888 20 18"},"geometry":{"type":"Point","coordinates":[4.375380306542467,51.09766575807562]}},{"type":"Feature","properties":{"website":"www.kasteeltje-puurs.be","school":"primary; kindergarten","language:nl":"yes","capacity":266,"source:ref":"935","email":"directeur@kasteeltje-puurs.be","name":"GO! basisschool 't Kasteeltje","phone":"03 889 15 30"},"geometry":{"type":"Point","coordinates":[4.2884878584866595,51.072687243750885]}},{"type":"Feature","properties":{"website":"www.bsdelinde.net","school":"primary; kindergarten","language:nl":"yes","capacity":399,"source:ref":"943","email":"info@bsdelinde.net","name":"GO! basisschool De Linde","phone":"03 897 98 16"},"geometry":{"type":"Point","coordinates":[4.244669629425401,51.09561559348206]}},{"type":"Feature","properties":{"website":"www.bsdeschorre.be","school":"primary; kindergarten","language:nl":"yes","capacity":118,"source:ref":"951","email":"directeur@bsdeschorre.be","name":"GO! basisschool De Schorre","phone":"052 33 21 05"},"geometry":{"type":"Point","coordinates":[4.206032264911948,51.05743026245112]}},{"type":"Feature","properties":{"website":"www.klimroostemse.be","school":"primary; kindergarten","language:nl":"yes","capacity":277,"source:ref":"968","email":"bs.klimroos.temse@telenet.be","name":"GO! basisschool De Klimroos-De Wijsneus Temse","phone":"03 771 07 12"},"geometry":{"type":"Point","coordinates":[4.206321975107558,51.130678550426445]}},{"type":"Feature","properties":{"website":"www.detovertuin.be","school":"primary; kindergarten","language:nl":"yes","capacity":328,"source:ref":"976","email":"directie@detovertuin.be","name":"GO! basisschool De Tovertuin Sint-Niklaas","phone":"03 766 64 44"},"geometry":{"type":"Point","coordinates":[4.142733546954613,51.17336837305149]}},{"type":"Feature","properties":{"website":"www.bsdewatertoren.be","school":"primary; kindergarten","language:nl":"yes","capacity":529,"source:ref":"984","email":"directie@bsdewatertoren.be","name":"GO! basisschool De Watertoren Sint-Niklaas","phone":"03 780 79 15"},"geometry":{"type":"Point","coordinates":[4.149112837098771,51.15759678231705]}},{"type":"Feature","properties":{"website":"www.basisschoolhetlaar.be","school":"primary; kindergarten","language:nl":"yes","capacity":590,"source:ref":"1008","email":"directie@basisschoolhetlaar.be","name":"GO! basisschool Het Laar","phone":"03 252 80 95"},"geometry":{"type":"Point","coordinates":[4.331680587266119,51.214724858788436]}},{"type":"Feature","properties":{"website":"www.bsdebever.be","school":"primary; kindergarten","language:nl":"yes","capacity":162,"source:ref":"1016","email":"directie@bsdebever.be","name":"GO! basisschool De Bever Beveren-Waas","phone":"03 750 96 85"},"geometry":{"type":"Point","coordinates":[4.249651187079841,51.214635603881845]}},{"type":"Feature","properties":{"website":"www.basisschoolreynaert.be","school":"primary; kindergarten","language:nl":"yes","capacity":146,"source:ref":"1024","email":"directie@basisschoolreynaert.be","name":"GO! basisschool Reynaert kruibeke","phone":"03 774 15 68"},"geometry":{"type":"Point","coordinates":[4.3061775995514004,51.172029293956946]}},{"type":"Feature","properties":{"website":"www.bsdebron.be","school":"primary; kindergarten","language:nl":"yes","capacity":229,"source:ref":"1032","email":"directie@bsdebron.be","name":"GO! basisschool De Bron De Klinge","phone":"03 770 57 11"},"geometry":{"type":"Point","coordinates":[4.080860060029062,51.25103650949234]}},{"type":"Feature","properties":{"website":"www.leefschooldezonnewijzer.be","school":"kindergarten; primary","language:nl":"yes","capacity":206,"source:ref":"1041","email":"directie@sterappel.be","name":"GO! basisschool De Zonnewijzer","phone":"03 773 47 90"},"geometry":{"type":"Point","coordinates":[4.177671305348051,51.29112006970722]}},{"type":"Feature","properties":{"website":"www.dubbelsprong.be","school":"primary; kindergarten","language:nl":"yes","capacity":279,"source:ref":"1057","email":"directie@dubbelsprong.be","name":"GO! basisschool Dubbelsprong","phone":"015 20 32 36"},"geometry":{"type":"Point","coordinates":[4.4887371511013825,51.025784239334605]}},{"type":"Feature","properties":{"website":"www.bslyceum.be","school":"primary; kindergarten","language:nl":"yes","capacity":380,"source:ref":"1065","email":"info@bslyceum.be","name":"GO! basisschool Lyceum","phone":"015 20 43 09"},"geometry":{"type":"Point","coordinates":[4.4885619419389,51.035195653700995]}},{"type":"Feature","properties":{"website":"www.devlindertuinmechelen.be","school":"primary; kindergarten","language:nl":"yes","capacity":408,"source:ref":"1073","email":"directie@devlindertuinmechelen.be","name":"GO! basisschool De Vlindertuin","phone":"015 41 16 02"},"geometry":{"type":"Point","coordinates":[4.471441401592606,51.00989959919939]}},{"type":"Feature","properties":{"website":"www.basisschool-keerbergen.be","school":"primary; kindergarten","language:nl":"yes","capacity":577,"source:ref":"1081","email":"directie@basisschool-keerbergen.be","name":"GO! basisschool Atheneum Keerbergen","phone":"015 23 53 61"},"geometry":{"type":"Point","coordinates":[4.658021911389678,51.0028722100171]}},{"type":"Feature","properties":{"website":"www.alicenahonschool.be","school":"primary; kindergarten","language:nl":"yes","capacity":259,"source:ref":"1099","email":"directie@alicenahonschool.be","name":"GO! basisschool Alice Nahon","phone":"015 76 75 22"},"geometry":{"type":"Point","coordinates":[4.625800579377992,51.05261053903269]}},{"type":"Feature","properties":{"website":"www.bs-drjozefweyns.be","school":"primary; kindergarten","language:nl":"yes","capacity":272,"source:ref":"1107","email":"secretariaat@bs-drjozefweyns.be","name":"GO! basisschool Dr. Jozef Weyns","phone":"015 76 71 21"},"geometry":{"type":"Point","coordinates":[4.665963958073957,51.05985943001477]}},{"type":"Feature","properties":{"website":"www.terberken.be","school":"primary; kindergarten","language:nl":"yes","capacity":284,"source:ref":"1123","email":"directie@terberken.be","name":"GO! basisschool Ter Berken","phone":"015 61 23 69"},"geometry":{"type":"Point","coordinates":[4.494390607485348,50.99237580019052]}},{"type":"Feature","properties":{"website":"www.hertogkarel.be","school":"primary; kindergarten","language:nl":"yes","capacity":394,"source:ref":"1149","email":"secretariaat@hertogkarel.be","name":"GO! basisschool Hertog Karel Wilsele","phone":"016 44 46 37"},"geometry":{"type":"Point","coordinates":[4.72050617485632,50.927283289466665]}},{"type":"Feature","properties":{"website":"www.peeennel.be","school":"primary; kindergarten","language:nl":"yes","capacity":182,"source:ref":"1156","email":"annick.tricot@huis11.be","name":"GO! basisschool Pee & Nel","phone":"016 20 74 51"},"geometry":{"type":"Point","coordinates":[4.708121758283805,50.882778362672425]}},{"type":"Feature","properties":{"website":"www.leefscholenleuven.be","school":"kindergarten; primary","language:nl":"yes","capacity":474,"source:ref":"1164","email":"begga.willems@huis11.be","name":"GO! basisschool De Klare Bron/ De Grasmus","phone":"016 22 26 73"},"geometry":{"type":"Point","coordinates":[4.689327590279076,50.86283026593377]}},{"type":"Feature","properties":{"website":"www.hertogjan.be","school":"primary; kindergarten","language:nl":"yes","capacity":234,"source:ref":"1172","email":"directie@hertogjan.be","name":"GO! basisschool Hertog Jan","phone":"02 759 68 25"},"geometry":{"type":"Point","coordinates":[4.537188320753546,50.88947835088234]}},{"type":"Feature","properties":{"website":"www.go-spectrum.be","school":"primary; kindergarten","language:nl":"yes","capacity":290,"source:ref":"1181","email":"directie@go-spectrum.be","name":"GO! basisschool - Spectrum","phone":"016 65 54 27"},"geometry":{"type":"Point","coordinates":[4.557299500812183,50.93909441057874]}},{"type":"Feature","properties":{"website":"www.atheneumheist.be","school":"primary; kindergarten","language:nl":"yes","capacity":344,"source:ref":"1198","email":"directie.twensbos@atheneumheist.be","name":"GO! basisschool 't Wensbos","phone":"0477 82 11 21"},"geometry":{"type":"Point","coordinates":[4.7277595759685385,51.07357429266005]}},{"type":"Feature","properties":{"website":"www.bs-decocon.be","school":"primary; kindergarten","language:nl":"yes","capacity":326,"source:ref":"1206","email":"directie@bs-decocon.be","name":"GO! basisschool De Cocon","phone":"016 53 16 98"},"geometry":{"type":"Point","coordinates":[4.704255737429326,50.989670067369545]}},{"type":"Feature","properties":{"website":"www.bs-deletterboom.be","school":"primary; kindergarten","language:nl":"yes","capacity":99,"source:ref":"1222","email":"directie@bs-deletterboom.be","name":"GO! basisschool De Letterboom","phone":"014 54 49 80"},"geometry":{"type":"Point","coordinates":[4.878686650936351,51.05281831513183]}},{"type":"Feature","properties":{"website":"www.hetleerlabo.be","school":"kindergarten; primary","language:nl":"yes","capacity":100,"source:ref":"1231","email":"directie.daltonschool@hetleerlabo.be","name":"GO! Daltonschool Het Leerlabo","phone":"014 53 86 56"},"geometry":{"type":"Point","coordinates":[4.906749638841651,51.08712954407751]}},{"type":"Feature","properties":{"website":"www.regenboog.be","school":"kindergarten; primary","language:nl":"yes","capacity":210,"source:ref":"1248","email":"ludo.van.meensel@huis11.be","name":"GO! basisschool Regenboog Kessel-lo","phone":"016 25 74 46"},"geometry":{"type":"Point","coordinates":[4.7277191841298585,50.875636299443435]}},{"type":"Feature","properties":{"website":"www.bsdewinge.be","school":"primary; kindergarten","language:nl":"yes","capacity":207,"source:ref":"1255","email":"boris.skatchkoff@adite.be","name":"GO! basisschool De Winge Tielt-Winge","phone":"016 63 45 32"},"geometry":{"type":"Point","coordinates":[4.882250515331065,50.90745784777668]}},{"type":"Feature","properties":{"website":"www.bszonnedorp.be","school":"primary; kindergarten","language:nl":"yes","capacity":200,"source:ref":"1263","email":"directeur@bszonnedorp.be","name":"GO! basisschool Zonnedorp Aarschot","phone":"016 68 98 20"},"geometry":{"type":"Point","coordinates":[4.836559193916113,50.987500028162025]}},{"type":"Feature","properties":{"website":"www.bsdehoogvlieger.be","school":"primary; kindergarten","language:nl":"yes","capacity":204,"source:ref":"1271","email":"directeur@bsdehoogvlieger.be","name":"GO! basisschool - De Hoogvlieger Aarschot","phone":"016 56 62 64"},"geometry":{"type":"Point","coordinates":[4.836715068920128,51.00306841320039]}},{"type":"Feature","properties":{"website":"www.bsdolfijn.be","school":"primary; kindergarten","language:nl":"yes","capacity":359,"source:ref":"1289","email":"lien.dehaene@adite.be","name":"GO! basisschool Dol-fijn Rillaar","phone":"016 50 91 00"},"geometry":{"type":"Point","coordinates":[4.899172331869442,50.971745427580935]}},{"type":"Feature","properties":{"website":"www.freinetschooldepit.be","school":"kindergarten; primary","language:nl":"yes","capacity":211,"source:ref":"1297","email":"coordinator@freinetschooldepit.be","name":"GO! freinetschool De Pit Diest","phone":"013 31 16 87"},"geometry":{"type":"Point","coordinates":[5.0553097594094805,50.986226608938004]}},{"type":"Feature","properties":{"website":"www.dekleineprinsdiest.be","school":"primary; kindergarten","language:nl":"yes","capacity":435,"source:ref":"1305","email":"onthaal@dekleineprinsdiest.be","name":"GO! basisschool De Kleine Prins","phone":"013 35 14 70"},"geometry":{"type":"Point","coordinates":[5.051346869577111,50.99085221258002]}},{"type":"Feature","properties":{"website":"www.kleinatheneum.be","school":"primary; kindergarten","language:nl":"yes","capacity":446,"source:ref":"1313","email":"directeur@kleinatheneum.be","name":"GO! basisschool Klein Atheneum Tienen","phone":"016 81 68 45"},"geometry":{"type":"Point","coordinates":[4.935970604714224,50.80935049849497]}},{"type":"Feature","properties":{"website":"www.debronleuven.be","school":"primary; kindergarten","language:nl":"yes","capacity":186,"source:ref":"1339","email":"secretariaat.bron@gmail.com","name":"GO! basisschool De Bron","phone":"016 53 90 13"},"geometry":{"type":"Point","coordinates":[4.734346640520559,50.86557471436194]}},{"type":"Feature","properties":{"website":"www.hofpepijn.be","school":"primary; kindergarten","language:nl":"yes","capacity":524,"source:ref":"1354","email":"directeur@hofpepijn.be","name":"GO! basisschool Hof Pepijn","phone":"011 88 17 93"},"geometry":{"type":"Point","coordinates":[5.081929735561178,50.750009719528066]}},{"type":"Feature","properties":{"website":"www.bsgo-de-regent.be","school":"primary; kindergarten","language:nl":"yes","capacity":140,"source:ref":"1362","email":"directie@de-regent.be","name":"GO] basisschool De Regent Gingelom","phone":"011 88 23 24"},"geometry":{"type":"Point","coordinates":[5.134234596298781,50.7484021585827]}},{"type":"Feature","properties":{"website":"www.depuzzelrunkst.be","school":"primary; kindergarten","language:nl":"yes","capacity":265,"source:ref":"1388","email":"directie@depuzzelrunkst.be","name":"GO! Next basisschool de Puzzel","phone":"011 27 17 12"},"geometry":{"type":"Point","coordinates":[5.320880612461573,50.92470921341418]}},{"type":"Feature","properties":{"website":"www.hetkleineatheneum.be","school":"primary; kindergarten","language:nl":"yes","capacity":207,"source:ref":"1396","email":"directie@hetkleineatheneum.be","name":"GO! Next basisschool Het Kleine Atheneum","phone":"011 22 41 19"},"geometry":{"type":"Point","coordinates":[5.346246482228844,50.93041591530847]}},{"type":"Feature","properties":{"website":"www.daltonschool.be","school":"kindergarten; primary","language:nl":"yes","capacity":325,"source:ref":"1404","email":"secretariaat@daltonschool.be","name":"GO!Basisschool Daltonschool Hasselt","phone":"011 25 31 00"},"geometry":{"type":"Point","coordinates":[5.331700521400264,50.92658068093406]}},{"type":"Feature","properties":{"website":"www.bs-kosmos.be","school":"primary; kindergarten","language:nl":"yes","capacity":145,"source:ref":"1412","email":"directie@bs-kosmos.be","name":"GO! Next basisschool Kosmos","phone":"011 82 48 31"},"geometry":{"type":"Point","coordinates":[5.375075130531961,50.98974750384866]}},{"type":"Feature","properties":{"website":"www.mozaiekhouthalen.be","school":"primary; kindergarten","language:nl":"yes","capacity":182,"source:ref":"1421","email":"directie@mozaiekhouthalen.be","name":"GO! Next basisschool Moza√Øek","phone":"011 51 60 43"},"geometry":{"type":"Point","coordinates":[5.402902891013864,51.026956913066314]}},{"type":"Feature","properties":{"website":"www.parkvangenk.be","school":"primary; kindergarten","language:nl":"yes","capacity":173,"source:ref":"1438","email":"hermans.suzy@scholengroep14.be","name":"GO! basisschool Park van Genk Houthalen-Helchteren","phone":"089 38 23 04"},"geometry":{"type":"Point","coordinates":[5.474328824459611,51.02069745861885]}},{"type":"Feature","properties":{"website":"www.daltonschoolzolder.be","school":"kindergarten; primary","language:nl":"yes","capacity":157,"source:ref":"1446","email":"directeur@daltonschoolzolder.be","name":"GO! Next daltonschool Zolder","phone":"011 53 36 70"},"geometry":{"type":"Point","coordinates":[5.312759073333747,51.02003814189427]}},{"type":"Feature","properties":{"website":"www.bsleerplein.be","school":"primary; kindergarten","language:nl":"yes","capacity":194,"source:ref":"1453","email":"directie@bsleerplein.be","name":"GO] Next BS LeerPLEIN","phone":"011 85 05 30"},"geometry":{"type":"Point","coordinates":[5.333370810168099,50.93378576827969]}},{"type":"Feature","properties":{"website":"www.xplow.school","school":"primary; kindergarten","language:nl":"yes","capacity":241,"source:ref":"1461","email":"directie@xplow.school","name":"GO! basisschool Xplow","phone":"011 42 29 47"},"geometry":{"type":"Point","coordinates":[5.212926907841142,51.06929467145823]}},{"type":"Feature","properties":{"website":"www.leefschooldevuurboom.be","school":"primary; kindergarten","language:nl":"yes","capacity":183,"source:ref":"1479","email":"info@devuurboom.be","name":"GO!basisschool Leefschool De Vuurboom","phone":"011 80 05 99"},"geometry":{"type":"Point","coordinates":[5.4254105515610185,51.219345043444065]}},{"type":"Feature","properties":{"website":"www.perenboompje.be","school":"kindergarten; primary","language:nl":"yes","capacity":347,"source:ref":"1487","email":"sarah.candreva@gmail.com","name":"GO! leefschool De UitvLinder / Freinetschool 't Perenboompje Peer","phone":"011 61 12 35"},"geometry":{"type":"Point","coordinates":[5.4580568880711295,51.132302109027144]}},{"type":"Feature","properties":{"website":"www.daltonschoolmeeuwen-gruitrode.be","school":"kindergarten; primary","language:nl":"yes","capacity":105,"source:ref":"1495","email":"directie@daltonschoolmeeuwen-gruitrode.be","name":"GO! basisschool Daltonschool Meeuwen-Gruitrode","phone":"011 79 25 21"},"geometry":{"type":"Point","coordinates":[5.5236844186837395,51.09677079061849]}},{"type":"Feature","properties":{"website":"www.voxpelt.be","school":"primary; kindergarten","language:nl":"yes","capacity":154,"source:ref":"1503","email":"anouska.binnemans@voxpelt.be","name":"GO! basisschool VOX Pelt","phone":"011 80 05 84"},"geometry":{"type":"Point","coordinates":[5.4260698112181425,51.22064255385206]}},{"type":"Feature","properties":{"website":"www.degeluksvogel.school","school":"primary; kindergarten","language:nl":"yes","capacity":144,"source:ref":"1511","email":"directie@degeluksvogel.school","name":"GO! basisschool De Geluksvogel","phone":"011 44 53 34"},"geometry":{"type":"Point","coordinates":[5.545521989844891,51.254624481976045]}},{"type":"Feature","properties":{"website":"www.debrugbocholt.be","school":"primary; kindergarten","language:nl":"yes","capacity":201,"source:ref":"1529","email":"basisschool@debrugbocholt.be","name":"GO! basisschool De Brug Bocholt","phone":"089 46 19 51"},"geometry":{"type":"Point","coordinates":[5.5838382437872225,51.175499013713136]}},{"type":"Feature","properties":{"website":"www.dereinpad.be","school":"primary; kindergarten","language:nl":"yes","capacity":935,"source:ref":"1537","email":"dereinpadgelieren@scholengroep14.be","name":"GO! basisschool De Reinpad-Gelieren Genk","phone":"089 32 23 10"},"geometry":{"type":"Point","coordinates":[5.522172503075316,50.976016394152005]}},{"type":"Feature","properties":{"website":"www.europaschoolgenk.be","school":"primary; kindergarten","language:nl":"yes","capacity":325,"source:ref":"1545","email":"directie@europaschool.telenet.be","name":"GO! basisschool Europaschool Genk","phone":"089 35 53 35"},"geometry":{"type":"Point","coordinates":[5.501706979018678,50.94999174028362]}},{"type":"Feature","properties":{"website":"www.freinetonthemove.be","school":"kindergarten; primary","language:nl":"yes","capacity":188,"source:ref":"1552","email":"freinetonthemove@scholengroep14.be","name":"GO! basisschool Freinet On The Move Genk - Europaschool Sledderlo","phone":"089 65 60 31"},"geometry":{"type":"Point","coordinates":[5.47763033715173,50.95554368216325]}},{"type":"Feature","properties":{"website":"www.stippestap.be","school":"primary; kindergarten","language:nl":"yes","capacity":209,"source:ref":"1561","email":"bsstippestap@scholengroep14.be","name":"GO! basisschool Stippe Stap Genk","phone":"089 84 99 10"},"geometry":{"type":"Point","coordinates":[5.5111520144981485,51.00173642061014]}},{"type":"Feature","properties":{"website":"www.bshetkompas.be","school":"primary; kindergarten","language:nl":"yes","capacity":113,"source:ref":"1578","email":"bshetkompas@scholengroep14.be","name":"GO! basisschool Het Kompas Genk","phone":"089 35 35 30"},"geometry":{"type":"Point","coordinates":[5.448847975583066,50.973944596711476]}},{"type":"Feature","properties":{"website":"www.boseind.be","school":"primary; kindergarten","language:nl":"yes","capacity":384,"source:ref":"1602","email":"ophetboseind@scholengroep14.be","name":"GO! basisschool Op Het Boseind Maasmechelen","phone":"089 76 47 81"},"geometry":{"type":"Point","coordinates":[5.681196981964832,50.97018489557443]}},{"type":"Feature","properties":{"website":"www.bskameleon.be","school":"primary; kindergarten","language:nl":"yes","capacity":136,"source:ref":"1611","email":"bs.kameleon@scholengroep14.be","name":"GO! basisschool Kameleon Maasmechelen","phone":"089 76 42 28"},"geometry":{"type":"Point","coordinates":[5.6960613708261665,50.98523853519256]}},{"type":"Feature","properties":{"website":"www.gokubik.be","school":"primary; kindergarten","language:nl":"yes","capacity":102,"source:ref":"1628","email":"gokubik@scholengroep14.be","name":"GO! Tehuis en basisschool Kubik","phone":"089 76 45 50"},"geometry":{"type":"Point","coordinates":[5.695795089323951,50.983884003708425]}},{"type":"Feature","properties":{"website":"www.bsmaasland.be","school":"primary; kindergarten","language:nl":"yes","capacity":100,"source:ref":"1636","email":"secretariaat@bsmaasland.be","name":"GO! basisschool Maasland","phone":"089 56 96 85"},"geometry":{"type":"Point","coordinates":[5.741509163974869,51.017720073209574]}},{"type":"Feature","properties":{"website":"www.delettertuin.be","school":"primary; kindergarten","language:nl":"yes","capacity":190,"source:ref":"1644","email":"info.delettertuin@scholengroep14.be","name":"GO! basisschool De Lettertuin Opglabbeek","phone":"089 85 44 63"},"geometry":{"type":"Point","coordinates":[5.586958018667701,51.0447744018497]}},{"type":"Feature","properties":{"website":"www.deduizendpoot-as.be","school":"primary; kindergarten","language:nl":"yes","capacity":134,"source:ref":"1651","email":"deduizendpoot@scholengroep14.be","name":"GO! basisschool De Duizendpoot As","phone":"089 65 71 76"},"geometry":{"type":"Point","coordinates":[5.583331304907661,51.00507622171273]}},{"type":"Feature","properties":{"website":"www.go-despringplank.be/","school":"primary; kindergarten","language:nl":"yes","capacity":203,"source:ref":"1669","email":"directie.despringplank@scholengroep14.be","name":"GO! basisschool De Springplank","phone":"089 86 43 25"},"geometry":{"type":"Point","coordinates":[5.7013834444902525,51.089149726811065]}},{"type":"Feature","properties":{"website":"desprongmaaseik.be","school":"primary; kindergarten","language:nl":"yes","capacity":312,"source:ref":"1677","email":"directie@desprongmaaseik.be","name":"GO! basisschool De Sprong Maaseik","phone":"089 56 04 82"},"geometry":{"type":"Point","coordinates":[5.790588009279748,51.09762723353427]}},{"type":"Feature","properties":{"website":"https://goklimaatschoolbree.be","school":"primary; kindergarten","language:nl":"yes","capacity":107,"source:ref":"1685","email":"klimaatschool@scholengroep14.be","name":"GO! basisschool Klimaatschool","phone":"089 47 13 86"},"geometry":{"type":"Point","coordinates":[5.604827669709013,51.140284503671445]}},{"type":"Feature","properties":{"website":"www.atheneeketongeren.be","school":"primary; kindergarten","language:nl":"yes","capacity":196,"source:ref":"1693","email":"info@atheneeketongeren.be","name":"GO! basisschool Atheneeke","phone":"012 39 89 39"},"geometry":{"type":"Point","coordinates":[5.469868569342904,50.780964325857006]}},{"type":"Feature","properties":{"website":"www.bsmerlijntongeren.be","school":"primary; kindergarten","language:nl":"yes","capacity":269,"source:ref":"1701","email":"directie@bsmerlijntongeren.be","name":"GO! basisschool Merlijn Tongeren","phone":"012 23 30 31"},"geometry":{"type":"Point","coordinates":[5.466245779813977,50.78492717487907]}},{"type":"Feature","properties":{"website":"www.freinetschooldemijlpaal.be/","school":"kindergarten; primary","language:nl":"yes","capacity":176,"source:ref":"1719","email":"directie@mijlpaal.org","name":"GO! freinetschool De Mijlpaal","phone":"012 24 20 40"},"geometry":{"type":"Point","coordinates":[5.454474100389637,50.773835004936345]}},{"type":"Feature","properties":{"website":"www.gobilijn.be","school":"primary; kindergarten","language:nl":"yes","capacity":238,"source:ref":"1727","email":"tilly.cops@gobilijn.be","name":"GO! basisschool GoBiLijn","phone":"089 41 52 87"},"geometry":{"type":"Point","coordinates":[5.511625554788776,50.87119576697703]}},{"type":"Feature","properties":{"website":"www.momentumsinttruiden.be","school":"primary; kindergarten","language:nl":"yes","capacity":229,"source:ref":"1751","email":"kris.selis@momentumsinttruiden.be","name":"GO! basisschool Momentum","phone":"011 68 38 13"},"geometry":{"type":"Point","coordinates":[5.177319949243501,50.821442885724174]}},{"type":"Feature","properties":{"website":"www.bsschuttershof.be","school":"kindergarten; primary","language:nl":"yes","capacity":522,"source:ref":"1768","email":"directie@bsschuttershof.be","name":"GO! basisschool Schuttershof Sint-Truiden","phone":"011 68 43 89"},"geometry":{"type":"Point","coordinates":[5.191369905097344,50.814144077504665]}},{"type":"Feature","properties":{"website":"www.bsdeeikwellen.be","school":"primary; kindergarten","language:nl":"yes","capacity":275,"source:ref":"1792","email":"bs.wellen@bsdeeikwellen.be","name":"GO! Next basisschool de Eik","phone":"012 67 24 40"},"geometry":{"type":"Point","coordinates":[5.341232272803375,50.843713791216]}},{"type":"Feature","properties":{"website":"www.debilter.be","school":"primary; kindergarten","language:nl":"yes","capacity":159,"source:ref":"1818","email":"info@debilter.be","name":"GO! basisschool De Bilter Heers","phone":"011 48 57 84"},"geometry":{"type":"Point","coordinates":[5.301642382096598,50.75067379111055]}},{"type":"Feature","properties":{"website":"www.basisschoolherx.be","school":"primary; kindergarten","language:nl":"yes","capacity":168,"source:ref":"1842","email":"directie@basisschoolherx.be","name":"GO! Next basisschool Herx","phone":"013 53 93 23"},"geometry":{"type":"Point","coordinates":[5.164073303909346,50.93926258956181]}},{"type":"Feature","properties":{"website":"www.bsdeberk.be","school":"primary; kindergarten","language:nl":"yes","capacity":263,"source:ref":"1867","email":"directeur@bsdeberk.be","name":"GO! basisschool De Berk Paal","phone":"011 42 28 82"},"geometry":{"type":"Point","coordinates":[5.168769895390955,51.04347160222382]}},{"type":"Feature","properties":{"website":"www.bsdeklimop.be","school":"primary; kindergarten","language:nl":"yes","capacity":155,"source:ref":"1875","email":"secretariaat@bsdeklimop.be","name":"GO! Basisschool De Klimop Ham","phone":"013 66 16 91"},"geometry":{"type":"Point","coordinates":[5.148832294255282,51.10307754946701]}},{"type":"Feature","properties":{"website":"www.campusflx.be","school":"primary; kindergarten","language:nl":"yes","capacity":315,"source:ref":"1883","email":"secretariaatbao@campusflx.be","name":"GO! basisschool Campus FLX","phone":"011 34 62 40"},"geometry":{"type":"Point","coordinates":[5.254431820017561,51.12128870838032]}},{"type":"Feature","properties":{"website":"www.bsdeletterberg.be","school":"primary; kindergarten","language:nl":"yes","capacity":348,"source:ref":"1909","email":"directeur@bsdeletterberg.be","name":"GO! basisschool De Letterberg Tessenderlo","phone":"013 66 27 47"},"geometry":{"type":"Point","coordinates":[5.081712862250235,51.06372680684683]}},{"type":"Feature","properties":{"website":"www.bs-dewissel.be","school":"primary; kindergarten","language:nl":"yes","capacity":155,"source:ref":"1917","email":"directie@bs-dewissel.be","name":"GO! basisschool De Wissel","phone":"014 84 12 02"},"geometry":{"type":"Point","coordinates":[4.986859385223553,51.06772432072872]}},{"type":"Feature","properties":{"website":"www.bs-deboomgaard.be","school":"primary; kindergarten","language:nl":"yes","capacity":206,"source:ref":"1925","email":"directie@bs-deboomgaard.be","name":"GO! basisschool De Boomgaard Meerhout","phone":"014 30 02 66"},"geometry":{"type":"Point","coordinates":[5.083495165761092,51.13171746781183]}},{"type":"Feature","properties":{"website":"www.bruggecentrum.be","school":"primary; kindergarten","language:nl":"yes","capacity":165,"source:ref":"1958","email":"directie@bruggecentrum.be","name":"GO! basisschool Brugge Centrum","phone":"050 33 20 21"},"geometry":{"type":"Point","coordinates":[3.2281268272609207,51.212475623078966]}},{"type":"Feature","properties":{"website":"www.brugge-despringplank.be","school":"primary; kindergarten","language:nl":"yes","capacity":211,"source:ref":"1974","email":"wesley.vanbavinckhove@brugge-despringplank.be","name":"GO! basisschool De Springplank","phone":"050 33 36 92"},"geometry":{"type":"Point","coordinates":[3.220136791403618,51.214384959200714]}},{"type":"Feature","properties":{"website":"www.bsfacet.be","school":"primary; kindergarten","language:nl":"yes","capacity":213,"source:ref":"1982","email":"directie@bsfacet.be","name":"GO! Basisschool Facet","phone":"050 84 19 71"},"geometry":{"type":"Point","coordinates":[3.2385606308093995,51.1503787385369]}},{"type":"Feature","properties":{"website":"www.stimuland.be","school":"kindergarten; primary","language:nl":"yes","capacity":144,"source:ref":"1991","email":"directie@stimuland.be","name":"GO! Stimuland","phone":"050 78 81 87"},"geometry":{"type":"Point","coordinates":[3.3290675953073183,51.13467830052972]}},{"type":"Feature","properties":{"website":"www.basisschoolpaalbos.be","school":"primary; kindergarten","language:nl":"yes","capacity":223,"source:ref":"2006","email":"nathalie.david@paalbos.be","name":"GO! basisschool Paalbos","phone":"050 35 18 48"},"geometry":{"type":"Point","coordinates":[3.266582518884193,51.200956349383816]}},{"type":"Feature","properties":{"website":"www.devalke.be","school":"primary; kindergarten","language:nl":"yes","capacity":141,"source:ref":"2014","email":"directie@devalke.be","name":"GO! basisschool De Valke","phone":"051 72 24 57"},"geometry":{"type":"Point","coordinates":[3.137382148131711,51.03097212066692]}},{"type":"Feature","properties":{"website":"www.basisschooleureka.be","school":"primary; kindergarten","language:nl":"yes","capacity":146,"source:ref":"2022","email":"directie.bseureka@sgimpact.be","name":"GO! basisschool Eureka","phone":"050 21 33 21"},"geometry":{"type":"Point","coordinates":[3.104670284860559,51.058719586158574]}},{"type":"Feature","properties":{"website":"www.bsstaden.be","school":"primary; kindergarten","language:nl":"yes","capacity":68,"source:ref":"2031","email":"info@bsstaden.be","name":"GO! Methodeschool Blink","phone":"051 70 12 48"},"geometry":{"type":"Point","coordinates":[3.01275500890199,50.977064600051186]}},{"type":"Feature","properties":{"website":"www.go-diksmuide.be","school":"primary; kindergarten","language:nl":"yes","capacity":273,"source:ref":"2048","email":"dir.bsdiksmuide@go-scholengroepwesthoek.be","name":"GO! basisschool W'ijzer Diksmuide","phone":"051 50 21 88"},"geometry":{"type":"Point","coordinates":[2.8725918189171944,51.038822316674704]}},{"type":"Feature","properties":{"website":"www.basisschoolmanitoba.be","school":"primary; kindergarten","language:nl":"yes","capacity":305,"source:ref":"2071","email":"dir.manitoba@telenet.be","name":"GO! basisschool Manitoba","phone":"050 38 63 81"},"geometry":{"type":"Point","coordinates":[3.197310235609057,51.19663207126006]}},{"type":"Feature","properties":{"website":"www.deglimlach.be","school":"primary; kindergarten","language:nl":"yes","capacity":166,"source:ref":"2089","email":"info@deglimlach.be","name":"GO! basisschool De Glimlach Zedelgem","phone":"050 20 94 09"},"geometry":{"type":"Point","coordinates":[3.159375594495134,51.12837944858261]}},{"type":"Feature","properties":{"website":"www.permekeschool.be","school":"primary; kindergarten","language:nl":"yes","capacity":125,"source:ref":"2097","email":"directie.permeke@sgimpact.be","name":"GO! basisschool Permekeschool Jabbeke","phone":"050 81 14 02"},"geometry":{"type":"Point","coordinates":[3.0961915197068066,51.18386504905307]}},{"type":"Feature","properties":{"website":"www.arnoldusschool.be","school":"primary; kindergarten","language:nl":"yes","capacity":235,"source:ref":"2105","email":"info@arnoldusschool.be","name":"GO! basisschool Arnoldus Oudenburg","phone":"059 26 68 47"},"geometry":{"type":"Point","coordinates":[2.999768472890381,51.18394768332391]}},{"type":"Feature","properties":{"website":"www.deklimop-gistel.be","school":"primary; kindergarten","language:nl":"yes","capacity":280,"source:ref":"2113","email":"kelly.dildick@deklimop-gistel.be","name":"GO! basisschool De Klimop Gistel","phone":"059 27 87 35"},"geometry":{"type":"Point","coordinates":[2.9663404492985155,51.154410636634566]}},{"type":"Feature","properties":{"website":"www.delettertuin-koekelare.be","school":"primary; kindergarten","language:nl":"yes","capacity":347,"source:ref":"2139","email":"directeur@delettertuin-koekelare.be","name":"GO! basisschool De Lettertuin Koekelare","phone":"051 59 12 11"},"geometry":{"type":"Point","coordinates":[2.9802216838544178,51.0927951091998]}},{"type":"Feature","properties":{"website":"www.miniMAKZ.com","school":"kindergarten; primary","language:nl":"yes","capacity":230,"source:ref":"2147","email":"directie@bsminimakz.be","name":"GO! basisschool miniMAKZ","phone":"050 60 45 89"},"geometry":{"type":"Point","coordinates":[3.289564163943107,51.34447800783812]}},{"type":"Feature","properties":{"website":"www.freinetcontext.be","school":"kindergarten; primary","language:nl":"yes","capacity":108,"source:ref":"2154","email":"info@freinetcontext.be","name":"GO! Freinet Context","phone":"0479 29 91 73"},"geometry":{"type":"Point","coordinates":[3.2751528099503595,51.21196668386746]}},{"type":"Feature","properties":{"website":"www.bloeiweide.be","school":"primary; kindergarten","language:nl":"yes","capacity":232,"source:ref":"2162","email":"info@bloeiweide.be","name":"GO! basisschool Bloeiweide","phone":"050 36 68 82"},"geometry":{"type":"Point","coordinates":[3.2412771708321015,51.19715816586611]}},{"type":"Feature","properties":{"website":"www.doefenschool.be","school":"primary; kindergarten","language:nl":"yes","capacity":344,"source:ref":"2171","email":"directie@doefenschool.be","name":"GO! basisschool D'oefenschool Blankenberge","phone":"050 43 25 30"},"geometry":{"type":"Point","coordinates":[3.1260266246344663,51.3108054627007]}},{"type":"Feature","properties":{"website":"www.zilvermeeuwblankenberge.be","school":"primary; kindergarten","language:nl":"yes","capacity":278,"source:ref":"2188","email":"bs.zilvermeeuw@skynet.be","name":"GO! basisschool Zilvermeeuw Blankenberge","phone":"050 43 35 01"},"geometry":{"type":"Point","coordinates":[3.1415847267209798,51.31474287594357]}},{"type":"Feature","properties":{"website":"www.degroeiboom.be","school":"primary; kindergarten","language:nl":"yes","capacity":265,"source:ref":"2204","email":"info@degroeiboom.be","name":"GO! basisschool De Groeiboom Oostende","phone":"059 70 89 30"},"geometry":{"type":"Point","coordinates":[2.916481029140352,51.22934185917584]}},{"type":"Feature","properties":{"website":"www.basisschoolstene.be","school":"primary; kindergarten","language:nl":"yes","capacity":583,"source:ref":"2212","email":"info@basisschoolstene.be","name":"GO! basisschool Stene Oostende","phone":"059 50 06 91"},"geometry":{"type":"Point","coordinates":[2.895658911065265,51.20950451193373]}},{"type":"Feature","properties":{"website":"www.govogelzang.be","school":"primary; kindergarten","language:nl":"yes","capacity":340,"source:ref":"2221","email":"directeur@govogelzang.be","name":"GO] basisschool Vogelzang","phone":"059 50 10 99"},"geometry":{"type":"Point","coordinates":[2.9162084069184933,51.21924293088874]}},{"type":"Feature","properties":{"website":"www.campuseinstein.be","school":"primary; kindergarten","language:nl":"yes","capacity":130,"source:ref":"2246","email":"directie.einstein@sgimpact.be","name":"GO! basisschool Einstein De Haan","phone":"059 23 37 52"},"geometry":{"type":"Point","coordinates":[3.0310203803312423,51.26890616281574]}},{"type":"Feature","properties":{"website":"www.bsdevierboete.be","school":"primary; kindergarten","language:nl":"yes","capacity":200,"source:ref":"2261","email":"dir.bsnieuwpoort@go-scholengroepwesthoek.be","name":"GO! basisschool De Vierboete Nieuwpoort","phone":"058 23 56 60"},"geometry":{"type":"Point","coordinates":[2.7541479779232927,51.12939584883379]}},{"type":"Feature","properties":{"website":"www.letterzee.be","school":"kindergarten; primary","language:nl":"yes","capacity":117,"source:ref":"2279","email":"directie@letterzee.be","name":"GO! basisschool De Letterzee","phone":"058 51 17 44"},"geometry":{"type":"Point","coordinates":[2.6407746231733493,51.11265935904448]}},{"type":"Feature","properties":{"website":"www.detuimelaar.be","school":"primary; kindergarten","language:nl":"yes","capacity":116,"source:ref":"2287","email":"dir.bsdepanne@go-scholengroepwesthoek.be","name":"GO! basisschool De Tuimelaar De Panne","phone":"058 41 33 13"},"geometry":{"type":"Point","coordinates":[2.5933983340446187,51.09755249055012]}},{"type":"Feature","properties":{"website":"www.basisschooldriehofsteden.be","school":"primary; kindergarten","language:nl":"yes","capacity":383,"source:ref":"2303","email":"secretariaat@bsdriehofsteden.be","name":"GO! basisschool Drie Hofsteden","phone":"056 22 39 52"},"geometry":{"type":"Point","coordinates":[3.285667454684704,50.822223874595956]}},{"type":"Feature","properties":{"website":"www.hetopengroene.be","school":"primary; kindergarten","language:nl":"yes","capacity":231,"source:ref":"2311","email":"info@hetopengroene.be","name":"GO! basisschool Het Open Groene Marke","phone":"056 21 93 54"},"geometry":{"type":"Point","coordinates":[3.2334971157453367,50.802086748608936]}},{"type":"Feature","properties":{"website":"www.bstermolen.be","school":"primary; kindergarten","language:nl":"yes","capacity":139,"source:ref":"2329","email":"directie@bstermolen.be","name":"GO! basisschool Ter Molen Lauwe","phone":"056 41 30 14"},"geometry":{"type":"Point","coordinates":[3.1891204487933704,50.79074333314072]}},{"type":"Feature","properties":{"website":"www.bsdewindroos.be","school":"primary; kindergarten","language:nl":"yes","capacity":142,"source:ref":"2345","email":"info@bsdewindroos.be","name":"GO! basisschool De Windroos Zwevegem","phone":"056 75 85 51"},"geometry":{"type":"Point","coordinates":[3.3447405838653324,50.812963895962184]}},{"type":"Feature","properties":{"website":"www.bs-dedriesprong.be","school":"kindergarten; primary","language:nl":"yes","capacity":196,"source:ref":"2352","email":"isabellechristiaens@bs-dedriesprong.be","name":"GO! basisschool De DRIESprong Deerlijk","phone":"056 71 36 52"},"geometry":{"type":"Point","coordinates":[3.354850547930323,50.85088215383724]}},{"type":"Feature","properties":{"website":"BSDeToekomst.be","school":"primary; kindergarten","language:nl":"yes","capacity":426,"source:ref":"2361","email":"info@bsdetoekomst.be","name":"GO! basisschool De Toekomst Avelgem","phone":"056 65 01 41"},"geometry":{"type":"Point","coordinates":[3.445347854828752,50.77886330218715]}},{"type":"Feature","properties":{"website":"www.bsdestartbaan.be","school":"primary; kindergarten","language:nl":"yes","capacity":238,"source:ref":"2394","email":"secretariaat@bsdestartbaan.be","name":"GO! basisschool De Startbaan Wevelgem","phone":"056 41 23 21"},"geometry":{"type":"Point","coordinates":[3.187127398622099,50.81818023890647]}},{"type":"Feature","properties":{"website":"www.futurascholen.be","school":"primary; kindergarten","language:nl":"yes","capacity":300,"source:ref":"2402","email":"tom@futurascholen.be","name":"GO! Futura - Basisschool Wervik","phone":"056 31 27 03"},"geometry":{"type":"Point","coordinates":[3.0526484693646148,50.78395031659902]}},{"type":"Feature","properties":{"website":"www.bsterberken.be","school":"primary; kindergarten","language:nl":"yes","capacity":91,"source:ref":"2411","email":"dir.bslangemark@go-scholengroepwesthoek.be","name":"GO! basisschool Ter Berken Langemark","phone":"057 48 85 87"},"geometry":{"type":"Point","coordinates":[2.9190964931954433,50.91152092236362]}},{"type":"Feature","properties":{"website":"www.methodeschoolbloei.be","school":"kindergarten; primary","language:nl":"yes","capacity":113,"source:ref":"2428","email":"info@methodeschoolbloei.be","name":"GO! methodeschool Bloei! Ledegem","phone":"056 50 02 60"},"geometry":{"type":"Point","coordinates":[3.1270117075094093,50.85954515376933]}},{"type":"Feature","properties":{"website":"www.campusbellevue.be","school":"primary; kindergarten","language:nl":"yes","capacity":263,"source:ref":"2436","email":"directeur@campusbellevue.be","name":"GO! basisschool Bellevue Izegem","phone":"051 30 66 50"},"geometry":{"type":"Point","coordinates":[3.2035807306765234,50.918343951006996]}},{"type":"Feature","properties":{"website":"www.bsdedobbelsteen.be","school":"primary; kindergarten","language:nl":"yes","capacity":187,"source:ref":"2444","email":"directie@bsdedobbelsteen.be","name":"GO! basisschool De Dobbelsteen","phone":"056 35 18 08"},"geometry":{"type":"Point","coordinates":[3.2319940760390398,50.83850118080638]}},{"type":"Feature","properties":{"website":"www.basisschoolkuurne.be","school":"primary; kindergarten","language:nl":"yes","capacity":145,"source:ref":"2451","email":"boomgaard@basisschoolkuurne.be","name":"GO! basisschool De Boomgaard Kuurne","phone":"056 71 36 53"},"geometry":{"type":"Point","coordinates":[3.2830002946117394,50.85356616479026]}},{"type":"Feature","properties":{"website":"www.tergavers.be","school":"primary; kindergarten","language:nl":"yes","capacity":225,"source:ref":"2469","email":"info@tergavers.be","name":"GO! basisschool Ter Gavers Harelbeke","phone":"056 71 92 22"},"geometry":{"type":"Point","coordinates":[3.319107836744793,50.85396637887505]}},{"type":"Feature","properties":{"website":"www.go-hetwonderbos.be","school":"primary; kindergarten","language:nl":"yes","capacity":127,"source:ref":"2485","email":"directie@go-hetwonderbos.be","name":"GO! basisschool Het Wonderbos Ingelmunster","phone":"051 30 26 23"},"geometry":{"type":"Point","coordinates":[3.2604159822142464,50.92421551492319]}},{"type":"Feature","properties":{"website":"bswaregem.be","school":"primary; kindergarten","language:nl":"yes","capacity":181,"source:ref":"2501","email":"ann.pepermans@talentensprong.be","name":"GO! basisschool TalentenSprong Waregem","phone":"056 60 10 17"},"geometry":{"type":"Point","coordinates":[3.421960542411101,50.88149572310633]}},{"type":"Feature","properties":{"website":"www.bsdeplataan.be","school":"primary; kindergarten","language:nl":"yes","capacity":380,"source:ref":"2519","email":"info@bsdeplataan.be","name":"GO! basisschool De Plataan Roeselare","phone":"051 20 70 55"},"geometry":{"type":"Point","coordinates":[3.1378063402453993,50.952942516821345]}},{"type":"Feature","properties":{"website":"www.bsrumbeke.be","school":"primary; kindergarten","language:nl":"yes","capacity":148,"source:ref":"2535","email":"info@bsrumbeke.be","name":"GO! basisschool Windekind Rumbeke","phone":"051 20 41 93"},"geometry":{"type":"Point","coordinates":[3.145629075005308,50.93402776382548]}},{"type":"Feature","properties":{"website":"www.despringplank-tielt.be","school":"primary; kindergarten","language:nl":"yes","capacity":149,"source:ref":"2543","email":"directie@despringplank-tielt.be","name":"GO! basisschool De Springplank Tielt","phone":"051 40 27 63"},"geometry":{"type":"Point","coordinates":[3.317628697996948,51.004103079332445]}},{"type":"Feature","properties":{"website":"www.campusminneplein.be","school":"primary; kindergarten","language:nl":"yes","capacity":348,"source:ref":"2551","email":"dir.bsieper@go-scholengroepwesthoek.be","name":"GO! basisschool De Mote Ieper","phone":"057 20 13 67"},"geometry":{"type":"Point","coordinates":[2.880319399877119,50.853494045026444]}},{"type":"Feature","properties":{"website":"www.bsterelzen.be","school":"primary; kindergarten","language:nl":"yes","capacity":73,"source:ref":"2576","email":"info@bsterelzen.be","name":"GO! basisschool Ter Elzen Wijtschate","phone":"057 44 50 50"},"geometry":{"type":"Point","coordinates":[2.8835668417991545,50.78483403673869]}},{"type":"Feature","properties":{"website":"www.bsgroeivlamertinge.be/","school":"primary; kindergarten","language:nl":"yes","capacity":104,"source:ref":"2584","email":"info@bsgroeivlamertinge.be","name":"GO! basisschool Groei Vlamertinge","phone":"057 20 33 18"},"geometry":{"type":"Point","coordinates":[2.826776254653051,50.85420550870667]}},{"type":"Feature","properties":{"website":"www.bsdester.be","school":"primary; kindergarten","language:nl":"yes","capacity":171,"source:ref":"2592","email":"info@bsdester.be","name":"GO! basisschool De Ster","phone":"057 33 41 32"},"geometry":{"type":"Point","coordinates":[2.7283481913245833,50.85276327875959]}},{"type":"Feature","properties":{"website":"www.bsvoskenslaan.be","school":"primary; kindergarten","language:nl":"yes","capacity":308,"source:ref":"2601","email":"info@bsvoskenslaan.be","name":"GO! basisschool Voskenslaan Gent","phone":"09 240 00 51"},"geometry":{"type":"Point","coordinates":[3.7070994284516505,51.03320840814648]}},{"type":"Feature","properties":{"website":"www.dekleineicarus.be","school":"kindergarten; primary","language:nl":"yes","capacity":207,"source:ref":"2618","email":"dir.dekleineicarus@scholengroep.gent","name":"GO! basisschool De Kleine Icarus Gent","phone":"09 243 30 99"},"geometry":{"type":"Point","coordinates":[3.7240132182592967,51.03689767905703]}},{"type":"Feature","properties":{"website":"www.bsdevogelzang.be","school":"primary; kindergarten","language:nl":"yes","capacity":409,"source:ref":"2626","email":"info@bsdevogelzang.be","name":"GO! basisschool De Vogelzang","phone":"09 251 13 32"},"geometry":{"type":"Point","coordinates":[3.7658583885894603,51.077865860638745]}},{"type":"Feature","properties":{"website":"www.molenschip.be","school":"primary; kindergarten","language:nl":"yes","capacity":181,"source:ref":"2642","email":"tim.godyn@scholengroep.gent","name":"GO! Basisschool Het Molenschip","phone":"09 216 44 96"},"geometry":{"type":"Point","coordinates":[3.7017115389007724,51.10432595614512]}},{"type":"Feature","properties":{"website":"www.dereigers.be","school":"primary; kindergarten","language:nl":"yes","capacity":325,"source:ref":"2659","email":"directie@dereigers.be","name":"GO! basisschool De Reigers Zelzate","phone":"09 345 59 56"},"geometry":{"type":"Point","coordinates":[3.8145912766447907,51.19953228385545]}},{"type":"Feature","properties":{"website":"www.zwaluwnest.be","school":"primary; kindergarten","language:nl":"yes","capacity":167,"source:ref":"2675","email":"secretariaat@zwaluwnest.be","name":"GO! basisschool openluchtschool 't Zwaluwnest","phone":"09 345 90 20"},"geometry":{"type":"Point","coordinates":[3.844807583352423,51.16497423256646]}},{"type":"Feature","properties":{"website":"www.demolenberg.be/index.php","school":"primary; kindergarten","language:nl":"yes","capacity":236,"source:ref":"2683","email":"directie@demolenberg.be","name":"GO! basisschool De Molenberg","phone":"03 779 74 38"},"geometry":{"type":"Point","coordinates":[4.033464138626239,51.211651818215664]}},{"type":"Feature","properties":{"website":"www.de-madelief.be","school":"primary; kindergarten","language:nl":"yes","capacity":181,"source:ref":"2691","email":"directie@de-madelief.be","name":"GO! basisschool De Madelief","phone":"09 348 11 03"},"geometry":{"type":"Point","coordinates":[3.991316238959259,51.10225247567228]}},{"type":"Feature","properties":{"website":"www.de-springplank.be","school":"primary; kindergarten","language:nl":"yes","capacity":309,"source:ref":"2709","email":"directie@de-springplank.be","name":"GO! basisschool De Springplank","phone":"09 348 28 07"},"geometry":{"type":"Point","coordinates":[3.990613813765857,51.11146357724443]}},{"type":"Feature","properties":{"website":"www.eikenkring.be","school":"kindergarten; primary","language:nl":"yes","capacity":187,"source:ref":"2717","email":"directie@eikenkring.be","name":"GO! basisschool Leefschool Eikenkring Lochristi","phone":"09 355 63 40"},"geometry":{"type":"Point","coordinates":[3.9013575652691004,51.10672219726316]}},{"type":"Feature","properties":{"website":"www.bsdewijzeboom.be","school":"primary; kindergarten","language:nl":"yes","capacity":421,"source:ref":"2725","email":"info@bsdewijzeboom.be","name":"GO! basisschool De Wijze Boom","phone":"09 218 86 76"},"geometry":{"type":"Point","coordinates":[3.756266574483479,51.05514639254093]}},{"type":"Feature","properties":{"website":"www.de-tovertuin.be","school":"primary; kindergarten","language:nl":"yes","capacity":107,"source:ref":"2741","email":"directie@de-tovertuin.be","name":"GO! BS De Tovertuin","phone":""},"geometry":{"type":"Point","coordinates":[3.9721047873687514,51.106746876234965]}},{"type":"Feature","properties":{"website":"www.campus-go-hamme.be","school":"primary; kindergarten","language:nl":"yes","capacity":203,"source:ref":"2758","email":"directie@gohamme.be","name":"GO! sportbasisschool in beweging Hamme","phone":"052 49 99 75"},"geometry":{"type":"Point","coordinates":[4.144589232591243,51.09017459795148]}},{"type":"Feature","properties":{"website":"www.kouterbos.be","school":"primary; kindergarten","language:nl":"yes","capacity":95,"source:ref":"2766","email":"directie@kouterbos.be","name":"GO! basisschool Kouterbos Waasmunster","phone":"052 46 99 87"},"geometry":{"type":"Point","coordinates":[4.083110069700431,51.1123340605435]}},{"type":"Feature","properties":{"website":"www.campuskompas.be","school":"primary; kindergarten","language:nl":"yes","capacity":341,"source:ref":"2774","email":"basisschool@campuskompas.be","name":"GO! Basisschool Campus Kompas","phone":"09 365 60 30"},"geometry":{"type":"Point","coordinates":[3.875954266601159,51.00242004821854]}},{"type":"Feature","properties":{"website":"www.pantarhei.be","school":"primary; kindergarten","language:nl":"yes","capacity":284,"source:ref":"2782","email":"elke.de.smet@de-klaver.be","name":"GO! basisschool De Klaver Destelbergen","phone":"09 230 87 11"},"geometry":{"type":"Point","coordinates":[3.8009378109989025,51.03384110378201]}},{"type":"Feature","properties":{"website":"www.bs-gentbrugge.be","school":"primary; kindergarten","language:nl":"yes","capacity":520,"source:ref":"2791","email":"info@bs-gentbrugge.be","name":"GO! basisschool Gentbrugge","phone":"09 210 51 50"},"geometry":{"type":"Point","coordinates":[3.7682841707808965,51.03554020162791]}},{"type":"Feature","properties":{"website":"www.bs-merelbeke.be","school":"kindergarten; primary","language:nl":"yes","capacity":540,"source:ref":"2808","email":"dir.bs-merelbeke@scholengroep.gent","name":"GO! basisschool Merelbeke","phone":"09 231 64 57"},"geometry":{"type":"Point","coordinates":[3.744486374375277,50.99831865998634]}},{"type":"Feature","properties":{"website":"www.leefschool.be","school":"kindergarten; primary","language:nl":"yes","capacity":205,"source:ref":"2824","email":"ilse.degusseme@hetleercollectief.be","name":"GO! basisschool De Leefschool Oosterzele","phone":"09 362 49 63"},"geometry":{"type":"Point","coordinates":[3.810139517445333,50.94586352843106]}},{"type":"Feature","properties":{"website":"","school":"kindergarten; primary","language:nl":"yes","capacity":202,"source:ref":"2841","email":"nico.deridder@hetleercollectief.be","name":"GO! basisschool De 2 Meersen","phone":"09 365 79 13"},"geometry":{"type":"Point","coordinates":[3.880473847827233,51.01304587298324]}},{"type":"Feature","properties":{"website":"www.tenberge.be","school":"primary; kindergarten","language:nl":"yes","capacity":275,"source:ref":"2857","email":"directeur@tenberge.be","name":"GO! basisschool Ten Berge Berlare","phone":"052 42 35 04"},"geometry":{"type":"Point","coordinates":[3.9976290390940257,51.01891958532527]}},{"type":"Feature","properties":{"website":"www.denieuwearend.be","school":"primary; kindergarten","language:nl":"yes","capacity":276,"source:ref":"2865","email":"directie@denieuwearend.be","name":"GO! basisschool De Nieuwe Arend Aalst","phone":"053 81 05 65"},"geometry":{"type":"Point","coordinates":[4.054583527908094,50.94961802626843]}},{"type":"Feature","properties":{"website":"www.bsatheneumaalst.be","school":"primary; kindergarten","language:nl":"yes","capacity":414,"source:ref":"2873","email":"directie@bsatheneumaalst.be","name":"GO! basisschool Atheneum Aalst","phone":"053 46 52 00"},"geometry":{"type":"Point","coordinates":[4.0404602949320525,50.940419704250466]}},{"type":"Feature","properties":{"website":"www.bsgaaf.be","school":"primary; kindergarten","language:nl":"yes","capacity":232,"source:ref":"2881","email":"directie@bsgaaf.be","name":"GO! basisschool GAAF! Aalst","phone":"053 60 82 55"},"geometry":{"type":"Point","coordinates":[4.038269391140322,50.93229642129111]}},{"type":"Feature","properties":{"website":"www.bsdekleineprins.be/","school":"primary; kindergarten","language:nl":"yes","capacity":269,"source:ref":"2907","email":"directeur@bsdekleineprins.be","name":"GO! basisschool De Kleine Prins","phone":"053 46 34 01"},"geometry":{"type":"Point","coordinates":[3.977288443011296,50.971526948480275]}},{"type":"Feature","properties":{"website":"www.kad.be","school":"primary; kindergarten","language:nl":"yes","capacity":439,"source:ref":"2923","email":"directie.bs@kad.be","name":"GO! basisschool Atheneum","phone":"052 25 17 78"},"geometry":{"type":"Point","coordinates":[4.100171147018518,51.02547130170845]}},{"type":"Feature","properties":{"website":"www.bijenkorf-dendermonde.be","school":"primary; kindergarten","language:nl":"yes","capacity":397,"source:ref":"2931","email":"directie@bijenkorf-dendermonde.be","name":"GO! basisschool De Bijenkorf","phone":"052 21 40 40"},"geometry":{"type":"Point","coordinates":[4.113690480669308,51.01884049922968]}},{"type":"Feature","properties":{"website":"www.vierhuizen.be","school":"kindergarten; primary","language:nl":"yes","capacity":221,"source:ref":"2949","email":"directie@vierhuizen.be","name":"GO! basisschool Vierhuizen & Meir","phone":"052 33 28 18"},"geometry":{"type":"Point","coordinates":[4.194125255206355,51.014438090861496]}},{"type":"Feature","properties":{"website":"www.konkelgoed.be","school":"primary; kindergarten","language:nl":"yes","capacity":185,"source:ref":"2956","email":"directie@konkelgoed.be","name":"GO! basisschool 't Konkelgoed","phone":"052 41 19 48"},"geometry":{"type":"Point","coordinates":[4.134648466375386,51.00270388208026]}},{"type":"Feature","properties":{"website":"www.bsfaluintjes.be","school":"primary; kindergarten","language:nl":"yes","capacity":174,"source:ref":"2964","email":"directie@bsfaluintjes.be","name":"GO! basisschool Faluintjes Moorsel","phone":"053 77 39 78"},"geometry":{"type":"Point","coordinates":[4.102019789596427,50.950795437776]}},{"type":"Feature","properties":{"website":"www.basisschooldekameleon.be","school":"primary; kindergarten","language:nl":"yes","capacity":338,"source:ref":"2972","email":"secretariaat@basisschooldekameleon.be","name":"GO! basisschool De Kameleon Ninove","phone":"054 33 32 32"},"geometry":{"type":"Point","coordinates":[4.025958831362267,50.83737072801711]}},{"type":"Feature","properties":{"website":"www.bsmeerbeke.be","school":"primary; kindergarten","language:nl":"yes","capacity":217,"source:ref":"2981","email":"directie@bsmeerbeke.be","name":"GO! basisschool De Wonderwijzer Meerbeke","phone":"054 33 42 99"},"geometry":{"type":"Point","coordinates":[4.045272831737979,50.82594595545279]}},{"type":"Feature","properties":{"website":"www.bslpboon.be","school":"primary; kindergarten","language:nl":"yes","capacity":197,"source:ref":"3004","email":"directie@bslpboon.be","name":"GO! basisschool L.P.Boon Erembodegem","phone":"053 78 26 21"},"geometry":{"type":"Point","coordinates":[4.063827179855359,50.91975350986063]}},{"type":"Feature","properties":{"website":"www.bsdekrekel.be","school":"primary; kindergarten","language:nl":"yes","capacity":200,"source:ref":"3012","email":"directeur@bsdekrekel.be","name":"GO! basisschool De Krekel","phone":"053 84 03 79"},"geometry":{"type":"Point","coordinates":[3.997147093589214,50.90324681277922]}},{"type":"Feature","properties":{"website":"www.bsgodenderleeuw.be","school":"kindergarten; primary","language:nl":"yes","capacity":420,"source:ref":"3021","email":"directie@bsgodenderleeuw.be","name":"GO! basisschool Atheneum Denderleeuw","phone":"053 46 51 00"},"geometry":{"type":"Point","coordinates":[4.078255803581282,50.89067399001831]}},{"type":"Feature","properties":{"website":"","school":"primary; kindergarten","language:nl":"yes","capacity":222,"source:ref":"3038","email":"directie@bsmolenveld.be","name":"GO! basisschool Molenveld","phone":"054 33 36 18"},"geometry":{"type":"Point","coordinates":[4.016005820185103,50.87365822901633]}},{"type":"Feature","properties":{"website":"www.bsgocentrum.be","school":"kindergarten; primary","language:nl":"yes","capacity":315,"source:ref":"3046","email":"info@bsgocentrum.be","name":"GO! basisschool Centrum Geraardsbergen","phone":"054 41 22 74"},"geometry":{"type":"Point","coordinates":[3.8830497179449845,50.769490696185116]}},{"type":"Feature","properties":{"website":"www.bsgodender.be","school":"primary; kindergarten","language:nl":"yes","capacity":529,"source:ref":"3053","email":"info@bsgodender.be","name":"GO! basisschool Dender Geraardsbergen","phone":"054 41 31 69"},"geometry":{"type":"Point","coordinates":[3.8793992420890837,50.77019470645356]}},{"type":"Feature","properties":{"website":"www.bshofkouter.be","school":"primary; kindergarten","language:nl":"yes","capacity":248,"source:ref":"3061","email":"info@bshofkouter.be","name":"GO! basisschool Hofkouter","phone":"053 62 29 36"},"geometry":{"type":"Point","coordinates":[3.855747310422608,50.92207867158128]}},{"type":"Feature","properties":{"website":"www.bsgodetrampoline.be/site","school":"primary; kindergarten","language:nl":"yes","capacity":130,"source:ref":"3079","email":"info@bsgodetrampoline.be","name":"GO! basisschool De Trampoline Herzele","phone":"053 61 71 20"},"geometry":{"type":"Point","coordinates":[3.888815760867717,50.891151092515756]}},{"type":"Feature","properties":{"website":"www.bsgoklimop.be","school":"primary; kindergarten","language:nl":"yes","capacity":323,"source:ref":"3087","email":"info@bsgoklimop.be","name":"GO! basisschool Klim Op Zandbergen","phone":"054 33 43 00"},"geometry":{"type":"Point","coordinates":[3.9591726326685572,50.80555026276822]}},{"type":"Feature","properties":{"website":"www.decrolyschool.be","school":"primary","capacity":460,"source:ref":"3095","email":"info@decrolyschool.be","name":"GO! basisschool Dr. O. Decroly avec sect. fr. Ronse","phone":"055 21 16 15"},"geometry":{"type":"Point","coordinates":[3.5949820352051636,50.743392846874315]}},{"type":"Feature","properties":{"website":"www.bskazottegem.be","school":"primary; kindergarten","language:nl":"yes","capacity":313,"source:ref":"3103","email":"info@bskazottegem.be","name":"GO! basisschool Atheneum Zottegem","phone":"09 326 98 60"},"geometry":{"type":"Point","coordinates":[3.8083509141101417,50.86433052959977]}},{"type":"Feature","properties":{"website":"www.bevegem.be","school":"primary; kindergarten","language:nl":"yes","capacity":414,"source:ref":"3111","email":"info@bevegem.be","name":"GO! basisschool Graaf Van Egmont Zottegem","phone":"09 360 31 15"},"geometry":{"type":"Point","coordinates":[3.8159643647695556,50.86918491307239]}},{"type":"Feature","properties":{"website":"www.bszwalm.be","school":"primary; kindergarten","language:nl":"yes","capacity":163,"source:ref":"3129","email":"info@bszwalm.be","name":"GO! basisschool De Zonnewijzer","phone":"055 49 99 95"},"geometry":{"type":"Point","coordinates":[3.735839874972007,50.87677262263109]}},{"type":"Feature","properties":{"website":"www.bsderijdtmeersen.be","school":"primary; kindergarten","language:nl":"yes","capacity":262,"source:ref":"3137","email":"info@bsderijdtmeersen.be","name":"GO! Basisschool De Rijdtmeersen Brakel","phone":"055 42 45 07"},"geometry":{"type":"Point","coordinates":[3.762352870005093,50.80175051202047]}},{"type":"Feature","properties":{"website":"www.omerwattez.be","school":"primary; kindergarten","language:nl":"yes","capacity":195,"source:ref":"3145","email":"info@omerwattez.be","name":"GO! basisschool Omer Wattez Schorisse","phone":"055 45 57 88"},"geometry":{"type":"Point","coordinates":[3.6744550836076275,50.80194679094584]}},{"type":"Feature","properties":{"website":"www.dewereldbrug.eu","school":"primary; kindergarten","language:nl":"yes","capacity":462,"source:ref":"3152","email":"directie@dewereldbrug.eu","name":"GO! basisschool De Wereldbrug","phone":"055 33 45 60"},"geometry":{"type":"Point","coordinates":[3.61596092941922,50.8449259008199]}},{"type":"Feature","properties":{"website":"www.schooldekleineprins.be","school":"primary; kindergarten","language:nl":"yes","capacity":221,"source:ref":"3161","email":"annstur@schooldekleineprins.be","name":"GO! basisschool De Kleine Prins De Pinte","phone":"09 282 46 02"},"geometry":{"type":"Point","coordinates":[3.656427998560237,50.99229106239893]}},{"type":"Feature","properties":{"website":"www.schoolvanmorgennazareth.be","school":"primary; kindergarten","language:nl":"yes","capacity":155,"source:ref":"3178","email":"directie@schoolvanmorgennazareth.be","name":"GO! basisschool School van Morgen Nazareth","phone":"09 385 44 52"},"geometry":{"type":"Point","coordinates":[3.6001336222035727,50.9620746093027]}},{"type":"Feature","properties":{"website":"www.dekeimolen.be","school":"primary; kindergarten","language:nl":"yes","capacity":197,"source:ref":"3194","email":"vanessa.truyen@dekeimolen.be","name":"GO! basisschool De Keimolen Kruishoutem","phone":"09 383 56 14"},"geometry":{"type":"Point","coordinates":[3.5230991117256623,50.906584119594065]}},{"type":"Feature","properties":{"website":"www.bserasmus.be","school":"primary; kindergarten","language:nl":"yes","capacity":368,"source:ref":"3211","email":"directie@bserasmus.be","name":"GO! basisschool Erasmus","phone":"09 381 56 09"},"geometry":{"type":"Point","coordinates":[3.5336772541784764,50.97542096117616]}},{"type":"Feature","properties":{"website":"www.bsmijlpaal.be","school":"primary; kindergarten","language:nl":"yes","capacity":267,"source:ref":"3228","email":"info@bsmijlpaal.be","name":"GO! basisschool Mijlpaal Drongen","phone":"09 226 75 00"},"geometry":{"type":"Point","coordinates":[3.652482184149145,51.05392399384357]}},{"type":"Feature","properties":{"website":"www.debeuk.be","school":"primary; kindergarten","language:nl":"yes","capacity":316,"source:ref":"3244","email":"basisschool@debeuk.be","name":"GO! basisschool De Beuk Aalter","phone":"09 374 42 77"},"geometry":{"type":"Point","coordinates":[3.4484664401998315,51.08830451770875]}},{"type":"Feature","properties":{"website":"www.bsklavertjevier.be","school":"primary; kindergarten","language:nl":"yes","capacity":283,"source:ref":"3251","email":"info@bsklavertjevier.be","name":"GO! basisschool Het Klavertje Vier Knesselare","phone":"09 374 33 66"},"geometry":{"type":"Point","coordinates":[3.4180566658220677,51.13648851711156]}},{"type":"Feature","properties":{"website":"www.basisschool-detandem.be","school":"kindergarten; primary","language:nl":"yes","capacity":349,"source:ref":"3269","email":"info@basisschool-detandem.be","name":"GO! basisschool De Tandem","phone":"09 377 56 44"},"geometry":{"type":"Point","coordinates":[3.5620202956211977,51.18955939946223]}},{"type":"Feature","properties":{"website":"www.dewijzeeik.be","school":"primary; kindergarten","language:nl":"yes","capacity":815,"source:ref":"3277","email":"dir.dewijzeeik@scholengroep.gent","name":"GO! basisschool De Wijze Eik Mariakerke","phone":"09 226 52 80"},"geometry":{"type":"Point","coordinates":[3.6866589171598196,51.08205532961761]}},{"type":"Feature","properties":{"website":"www.zandloper.be","school":"primary; kindergarten","language:nl":"yes","capacity":261,"source:ref":"3285","email":"secretariaat@zandloper.be","name":"GO! basisschool De Zandloper Zomergem","phone":"09 372 71 53"},"geometry":{"type":"Point","coordinates":[3.565510625665688,51.116314738415774]}},{"type":"Feature","properties":{"website":"www.de3sprong.be","school":"primary; kindergarten","language:nl":"yes","capacity":320,"source:ref":"3293","email":"directie@de3sprong.be","name":"GO! basisschool De Driesprong Maldegem","phone":"050 72 88 85"},"geometry":{"type":"Point","coordinates":[3.4525117399466216,51.20908597910286]}},{"type":"Feature","properties":{"website":"www.campusheemschool.be/mpi","school":"kindergarten; primary","school:for":"special_education","language:nl":"yes","capacity":127,"source:ref":"3301","email":"info.mpi@campusheemschool.be","name":"GO! medisch pedagogisch instituut - Heemschool Neder-over-Heembeek","phone":"02 262 03 20"},"geometry":{"type":"Point","coordinates":[4.3764691799397175,50.89545259857512]}},{"type":"Feature","properties":{"website":"www.go-bubaolentekind.be","school":"primary","school:for":"special_education","language:nl":"yes","capacity":98,"source:ref":"3319","email":"directie.lentekind@ringscholen.be","name":"GO! Lagere School voor buitengewoon onderwijs - Lentekind Lennik","phone":"02 532 51 16"},"geometry":{"type":"Point","coordinates":[4.152391996782356,50.8087610579034]}},{"type":"Feature","properties":{"website":"www.inclusiecampuswemmel.be","school":"primary","school:for":"special_education","language:nl":"yes","capacity":140,"source:ref":"3327","email":"directie.de.eekhoorn@ringscholen.be","name":"GO! lagere school voor buitengewoon onderwijs - De Eekhoorn Wemmel","phone":"02 460 43 62"},"geometry":{"type":"Point","coordinates":[4.310895629080864,50.90094963822794]}},{"type":"Feature","properties":{"website":"www.wilgenduin.be","school":"kindergarten; primary","school:for":"special_education","language:nl":"yes","capacity":330,"source:ref":"3335","email":"directie@wilgenduin.be","name":"GO! basisschool voor buitengewoon onderwijs - Wilgenduin Kalmthout","phone":"03 666 60 24"},"geometry":{"type":"Point","coordinates":[4.452981822468002,51.38015674412915]}},{"type":"Feature","properties":{"website":"www.zonnebos.be","school":"kindergarten; primary","school:for":"special_education","language:nl":"yes","capacity":235,"source:ref":"3343","email":"patrick.leppens@mpi-zonnebos.be","name":"GO! medisch pedagogisch instituut - Zonnebos 's-Gravenwezel","phone":"03 680 12 60"},"geometry":{"type":"Point","coordinates":[4.559235177288133,51.26648098607728]}},{"type":"Feature","properties":{"website":"www.de3master.be","school":"primary; kindergarten","school:for":"special_education","language:nl":"yes","capacity":593,"source:ref":"3368","email":"basisonderwijs@de3master.be","name":"GO! MPI De 3master basisonderwijs","phone":"014 85 00 62"},"geometry":{"type":"Point","coordinates":[4.963557789742027,51.23418852831063]}},{"type":"Feature","properties":{"website":"www.bsbo.groenlaar.be","school":"primary; kindergarten","school:for":"special_education","language:nl":"yes","capacity":538,"source:ref":"3384","email":"info@bsbo.groenlaar.be","name":"GO! basisschool voor buitengewoon onderwijs - Groenlaar Reet","phone":"03 888 40 16"},"geometry":{"type":"Point","coordinates":[4.385261313714559,51.10481955328855]}},{"type":"Feature","properties":{"website":"www.mpikompas.be","school":"kindergarten; primary","school:for":"special_education","language:nl":"yes","capacity":212,"source:ref":"3392","email":"info@mpikompas.be","name":"GO! medisch pedagogisch instituut - Kompas Sint-Niklaas","phone":"03 776 50 18"},"geometry":{"type":"Point","coordinates":[4.181836210399558,51.174092453026375]}},{"type":"Feature","properties":{"website":"bubao.woudlucht.be","school":"primary; kindergarten","school:for":"special_education","language:nl":"yes","capacity":395,"source:ref":"3401","email":"secretariaat.bubao@woudlucht.be","name":"GO! basisschool voor buitengewoon onderwijs - Woudlucht","phone":"016 38 06 66"},"geometry":{"type":"Point","coordinates":[4.689258113376484,50.854758055835966]}},{"type":"Feature","properties":{"website":"www.debloesem.be","school":"kindergarten; primary","school:for":"special_education","language:nl":"yes","capacity":220,"source:ref":"3426","email":"DIRECTIE@DEBLOESEM.BE","name":"GO! basisschool voor buitengewoon onderwijs - De Bloesem Sint-Truiden","phone":"011 67 25 55"},"geometry":{"type":"Point","coordinates":[5.172936936477677,50.8141193834681]}},{"type":"Feature","properties":{"website":"www.bsboheideland.be","school":"kindergarten; primary","school:for":"special_education","language:nl":"yes","capacity":63,"source:ref":"3434","email":"directie@bsboheideland.be","name":"GO! Next BSBO Heideland","phone":"011 42 66 64"},"geometry":{"type":"Point","coordinates":[5.251157623649655,50.999508344484575]}},{"type":"Feature","properties":{"website":"www.mpideluchtballon.be","school":"kindergarten; primary","school:for":"special_education","language:nl":"yes","capacity":154,"source:ref":"3442","email":"mpigenk@scholengroep14.be","name":"GO! medisch pedagogisch instituut - De Luchtballon Genk","phone":"089 50 00 50"},"geometry":{"type":"Point","coordinates":[5.52206019410518,50.97203492574002]}},{"type":"Feature","properties":{"website":"www.bsbomikado.be","school":"kindergarten; primary","school:for":"special_education","language:nl":"yes","capacity":99,"source:ref":"3459","email":"bsbomikado@scholengroep14.be","name":"GO! basisschool voor buitengewoon onderwijs- Mikado Maasmechelen","phone":"089 76 02 77"},"geometry":{"type":"Point","coordinates":[5.679294513332215,50.97088940061512]}},{"type":"Feature","properties":{"website":"www.mpi-dedageraad.be","school":"kindergarten; primary","school:for":"special_education","language:nl":"yes","capacity":141,"source:ref":"3467","email":"info@mpi-dedageraad.be","name":"GO! Next Medisch pedagogisch instituut De Dageraad","phone":"011 37 92 11"},"geometry":{"type":"Point","coordinates":[5.389581530675926,50.861399408526296]}},{"type":"Feature","properties":{"website":"campushelix.be","school":"kindergarten; primary","school:for":"special_education","language:nl":"yes","capacity":138,"source:ref":"3475","email":"directie@mpihelix.be","name":"GO! medisch pedagogisch instituut - Helix","phone":"011 55 02 00"},"geometry":{"type":"Point","coordinates":[5.302170951368242,51.246469058678336]}},{"type":"Feature","properties":{"website":"www.mpi-westhoek.be","school":"primary; kindergarten","school:for":"special_education","language:nl":"yes","capacity":185,"source:ref":"3491","email":"directie@mpi-westhoek.be","name":"GO! medisch pedagogisch instituut - Westhoek Koksijde","phone":"058 51 15 15"},"geometry":{"type":"Point","coordinates":[2.6607823897721885,51.11157498609611]}},{"type":"Feature","properties":{"website":"www.mpidekaproenen.be","school":"primary; kindergarten","school:for":"special_education","language:nl":"yes","capacity":199,"source:ref":"3509","email":"mpi.dekaproenen@telenet.be","name":"GO! medisch pedagogisch instituut - De Kaproenen Sint-Michiels","phone":"050 39 06 23"},"geometry":{"type":"Point","coordinates":[3.2130966646951733,51.17500618449721]}},{"type":"Feature","properties":{"website":"www.mpigodebevertjes.be","school":"kindergarten; primary","school:for":"special_education","language:nl":"yes","capacity":71,"source:ref":"3517","email":"directie@mpigodebevertjes.be","name":"GO! medisch pedagogisch instituut - De Bevertjes Oedelem","phone":"050 79 91 91"},"geometry":{"type":"Point","coordinates":[3.3382865493127634,51.16759672285505]}},{"type":"Feature","properties":{"website":"www.devloedlijn.be","school":"primary; kindergarten","school:for":"special_education","language:nl":"yes","capacity":379,"source:ref":"3525","email":"directeur@devloedlijn.be","name":"GO! medisch pedagogisch instituut - De Vloedlijn Oostende","phone":"059 50 74 90"},"geometry":{"type":"Point","coordinates":[2.9105047643331856,51.21119875194338]}},